[
    {
    "city": "Altenburg",
    "country": "DE",
    "elevation_ft": "640",
    "iata": "AOC",
    "icao": "EDAC",
    "latitude": "50.9819450378",
    "longitude": "12.5063886642",
    "name": "Altenburg-Nobitz Airport",
    "region": "Thuringia",
    "timezone": "Europe/Berlin"
    },
    {
    "city": "Heringsdorf",
    "country": "DE",
    "elevation_ft": "93",
    "iata": "HDF",
    "icao": "EDAH",
    "latitude": "53.8787002563",
    "longitude": "14.152299881",
    "name": "Heringsdorf Airport",
    "region": "Mecklenburg-Vorpommern",
    "timezone": "Europe/Berlin"
    },
    {
    "city": "Larz",
    "country": "DE",
    "elevation_ft": "220",
    "iata": "REB",
    "icao": "EDAX",
    "latitude": "53.306388855",
    "longitude": "12.7522220612",
    "name": "Rechlin-Larz Airport",
    "region": "Mecklenburg-Vorpommern",
    "timezone": "Europe/Berlin"
    },
    {
    "city": "Magdeburg",
    "country": "DE",
    "elevation_ft": "594",
    "iata": "CSO",
    "icao": "EDBC",
    "latitude": "51.8563995361",
    "longitude": "11.42029953",
    "name": "Cochstedt Airport",
    "region": "Saxony-Anhalt",
    "timezone": "Europe/Berlin"
    },
    {
    "city": "",
    "country": "DE",
    "elevation_ft": "23",
    "iata": "BBH",
    "icao": "EDBH",
    "latitude": "54.3375015259",
    "longitude": "12.6997003555",
    "name": "Barth Airport",
    "region": "Mecklenburg-Vorpommern",
    "timezone": "Europe/Berlin"
    },
    {
    "city": "Magdeburg",
    "country": "DE",
    "elevation_ft": "259",
    "iata": "ZMG",
    "icao": "EDBM",
    "latitude": "52.0736122131",
    "longitude": "11.6263885498",
    "name": "Magdeburg Airport",
    "region": "Saxony-Anhalt",
    "timezone": "Europe/Berlin"
    },
    {
    "city": "Cottbus",
    "country": "DE",
    "elevation_ft": "272",
    "iata": "CBU",
    "icao": "EDCD",
    "latitude": "51.8894424438",
    "longitude": "14.5319442749",
    "name": "Cottbus-Drewitz Airport",
    "region": "Brandenburg",
    "timezone": "Europe/Berlin"
    },
    {
    "city": "Rugen",
    "country": "DE",
    "elevation_ft": "69",
    "iata": "GTI",
    "icao": "EDCG",
    "latitude": "54.3833312988",
    "longitude": "13.3255558014",
    "name": "Rugen Airport",
    "region": "Mecklenburg-Vorpommern",
    "timezone": "Europe/Berlin"
    },
    {
    "city": "Peenemunde",
    "country": "DE",
    "elevation_ft": "7",
    "iata": "PEF",
    "icao": "EDCP",
    "latitude": "54.1577796936",
    "longitude": "13.7744436264",
    "name": "Peenemunde Airport",
    "region": "Mecklenburg-Vorpommern",
    "timezone": "Europe/Berlin"
    },
    {
    "city": "Berlin",
    "country": "DE",
    "elevation_ft": "157",
    "iata": "BER",
    "icao": "EDDB",
    "latitude": "52.362167",
    "longitude": "13.500667",
    "name": "Berlin Brandenburg Airport",
    "region": "Brandenburg",
    "timezone": "Europe/Berlin"
    },
    {
    "city": "Dresden",
    "country": "DE",
    "elevation_ft": "755",
    "iata": "DRS",
    "icao": "EDDC",
    "latitude": "51.1328010559",
    "longitude": "13.76720047",
    "name": "Dresden Airport",
    "region": "Saxony",
    "timezone": "Europe/Berlin"
    },
    {
    "city": "Erfurt",
    "country": "DE",
    "elevation_ft": "1036",
    "iata": "ERF",
    "icao": "EDDE",
    "latitude": "50.979801178",
    "longitude": "10.9581003189",
    "name": "Erfurt Airport",
    "region": "Thuringia",
    "timezone": "Europe/Berlin"
    },
    {
    "city": "Frankfurt-am-Main",
    "country": "DE",
    "elevation_ft": "364",
    "iata": "FRA",
    "icao": "EDDF",
    "latitude": "50.0264015198",
    "longitude": "8.543129921",
    "name": "Frankfurt am Main International Airport",
    "region": "Hesse",
    "timezone": "Europe/Berlin"
    },
    {
    "city": "Munster",
    "country": "DE",
    "elevation_ft": "160",
    "iata": "FMO",
    "icao": "EDDG",
    "latitude": "52.134601593",
    "longitude": "7.6848301888",
    "name": "Munster Osnabruck Airport",
    "region": "North-Rhine-Westphalia",
    "timezone": "Europe/Berlin"
    },
    {
    "city": "Hamburg",
    "country": "DE",
    "elevation_ft": "53",
    "iata": "HAM",
    "icao": "EDDH",
    "latitude": "53.6304016113",
    "longitude": "9.9882297516",
    "name": "Hamburg Airport",
    "region": "Hamburg",
    "timezone": "Europe/Berlin"
    },
    {
    "city": "Berlin",
    "country": "DE",
    "elevation_ft": "164",
    "iata": "THF",
    "icao": "EDDI",
    "latitude": "52.473611",
    "longitude": "13.401667",
    "name": "Berlin Tempelhof Airport",
    "region": "Berlin",
    "timezone": "Europe/Berlin"
    },
    {
    "city": "Cologne",
    "country": "DE",
    "elevation_ft": "302",
    "iata": "CGN",
    "icao": "EDDK",
    "latitude": "50.8658981323",
    "longitude": "7.1427397728",
    "name": "Cologne Bonn Airport",
    "region": "North-Rhine-Westphalia",
    "timezone": "Europe/Berlin"
    },
    {
    "city": "Dusseldorf",
    "country": "DE",
    "elevation_ft": "147",
    "iata": "DUS",
    "icao": "EDDL",
    "latitude": "51.2895011902",
    "longitude": "6.7667798996",
    "name": "Dusseldorf International Airport",
    "region": "North-Rhine-Westphalia",
    "timezone": "Europe/Berlin"
    },
    {
    "city": "Munich",
    "country": "DE",
    "elevation_ft": "1487",
    "iata": "MUC",
    "icao": "EDDM",
    "latitude": "48.3538017273",
    "longitude": "11.7861003876",
    "name": "Munich International Airport",
    "region": "Bavaria",
    "timezone": "Europe/Berlin"
    },
    {
    "city": "Nuremberg",
    "country": "DE",
    "elevation_ft": "1046",
    "iata": "NUE",
    "icao": "EDDN",
    "latitude": "49.4986991882",
    "longitude": "11.0669002533",
    "name": "Nuremberg Airport",
    "region": "Bavaria",
    "timezone": "Europe/Berlin"
    },
    {
    "city": "Leipzig",
    "country": "DE",
    "elevation_ft": "465",
    "iata": "LEJ",
    "icao": "EDDP",
    "latitude": "51.4323997498",
    "longitude": "12.2416000366",
    "name": "Leipzig Halle Airport",
    "region": "Saxony",
    "timezone": "Europe/Berlin"
    },
    {
    "city": "Saarbrucken",
    "country": "DE",
    "elevation_ft": "1058",
    "iata": "SCN",
    "icao": "EDDR",
    "latitude": "49.2145996094",
    "longitude": "7.1095099449",
    "name": "Saarbrucken Airport",
    "region": "Saarland",
    "timezone": "Europe/Berlin"
    },
    {
    "city": "Stuttgart",
    "country": "DE",
    "elevation_ft": "1276",
    "iata": "STR",
    "icao": "EDDS",
    "latitude": "48.6898994446",
    "longitude": "9.2219600677",
    "name": "Stuttgart Airport",
    "region": "Baden-Wuerttemberg",
    "timezone": "Europe/Berlin"
    },
    {
    "city": "Berlin",
    "country": "DE",
    "elevation_ft": "122",
    "iata": "TXL",
    "icao": "EDDT",
    "latitude": "52.5597000122",
    "longitude": "13.2876996994",
    "name": "Berlin-Tegel International Airport",
    "region": "Berlin",
    "timezone": "Europe/Berlin"
    },
    {
    "city": "Hannover",
    "country": "DE",
    "elevation_ft": "183",
    "iata": "HAJ",
    "icao": "EDDV",
    "latitude": "52.461101532",
    "longitude": "9.6850795746",
    "name": "Hannover Airport",
    "region": "Lower-Saxony",
    "timezone": "Europe/Berlin"
    },
    {
    "city": "Bremen",
    "country": "DE",
    "elevation_ft": "14",
    "iata": "BRE",
    "icao": "EDDW",
    "latitude": "53.0475006104",
    "longitude": "8.7866697311",
    "name": "Bremen Airport",
    "region": "Bremen",
    "timezone": "Europe/Berlin"
    },
    {
    "city": "Egelsbach",
    "country": "DE",
    "elevation_ft": "384",
    "iata": "QEF",
    "icao": "EDFE",
    "latitude": "49.9599990845",
    "longitude": "8.6458330154",
    "name": "Frankfurt-Egelsbach Airport",
    "region": "Hesse",
    "timezone": "Europe/Berlin"
    },
    {
    "city": "Hahn",
    "country": "DE",
    "elevation_ft": "1649",
    "iata": "HHN",
    "icao": "EDFH",
    "latitude": "49.9486999512",
    "longitude": "7.2638897896",
    "name": "Frankfurt-Hahn Airport",
    "region": "Rheinland-Pfalz",
    "timezone": "Europe/Berlin"
    },
    {
    "city": "Mannheim",
    "country": "DE",
    "elevation_ft": "308",
    "iata": "MHG",
    "icao": "EDFM",
    "latitude": "49.4730567932",
    "longitude": "8.514166832",
    "name": "Mannheim-City Airport",
    "region": "Baden-Wuerttemberg",
    "timezone": "Europe/Berlin"
    },
    {
    "city": "Mainz",
    "country": "DE",
    "elevation_ft": "761",
    "iata": "QMZ",
    "icao": "EDFZ",
    "latitude": "49.9674987793",
    "longitude": "8.1472215652",
    "name": "Mainz-Finthen Airport",
    "region": "Rheinland-Pfalz",
    "timezone": "Europe/Berlin"
    },
    {
    "city": "",
    "country": "DE",
    "elevation_ft": "1966",
    "iata": "SGE",
    "icao": "EDGS",
    "latitude": "50.707698822",
    "longitude": "8.0829696655",
    "name": "Siegerland Airport",
    "region": "North-Rhine-Westphalia",
    "timezone": "Europe/Berlin"
    },
    {
    "city": "Hamburg",
    "country": "DE",
    "elevation_ft": "23",
    "iata": "XFW",
    "icao": "EDHI",
    "latitude": "53.5352783203",
    "longitude": "9.8355560303",
    "name": "Hamburg-Finkenwerder Airport",
    "region": "Hamburg",
    "timezone": "Europe/Berlin"
    },
    {
    "city": "Kiel",
    "country": "DE",
    "elevation_ft": "102",
    "iata": "KEL",
    "icao": "EDHK",
    "latitude": "54.3794441223",
    "longitude": "10.145277977",
    "name": "Kiel-Holtenau Airport",
    "region": "Schleswig-Holstein",
    "timezone": "Europe/Berlin"
    },
    {
    "city": "Lubeck",
    "country": "DE",
    "elevation_ft": "53",
    "iata": "LBC",
    "icao": "EDHL",
    "latitude": "53.8054008484",
    "longitude": "10.7192001343",
    "name": "Lubeck Blankensee Airport",
    "region": "Schleswig-Holstein",
    "timezone": "Europe/Berlin"
    },
    {
    "city": "Neumunster",
    "country": "DE",
    "elevation_ft": "72",
    "iata": "EUM",
    "icao": "EDHN",
    "latitude": "54.0794448853",
    "longitude": "9.9413890839",
    "name": "Neumunster Airport",
    "region": "Schleswig-Holstein",
    "timezone": "Europe/Berlin"
    },
    {
    "city": "Memmingen",
    "country": "DE",
    "elevation_ft": "2077",
    "iata": "FMM",
    "icao": "EDJA",
    "latitude": "47.9888000488",
    "longitude": "10.2395000458",
    "name": "Memmingen Allgau Airport",
    "region": "Bavaria",
    "timezone": "Europe/Berlin"
    },
    {
    "city": "Aachen",
    "country": "DE",
    "elevation_ft": "623",
    "iata": "AAH",
    "icao": "EDKA",
    "latitude": "50.8230552673",
    "longitude": "6.1863889694",
    "name": "Aachen-Merzbruck Airport",
    "region": "North-Rhine-Westphalia",
    "timezone": "Europe/Berlin"
    },
    {
    "city": "Bonn",
    "country": "DE",
    "elevation_ft": "197",
    "iata": "BNJ",
    "icao": "EDKB",
    "latitude": "50.7688903809",
    "longitude": "7.1633329391",
    "name": "Bonn-Hangelar Airport",
    "region": "North-Rhine-Westphalia",
    "timezone": "Europe/Berlin"
    },
    {
    "city": "",
    "country": "DE",
    "elevation_ft": "424",
    "iata": "ESS",
    "icao": "EDLE",
    "latitude": "51.4023017883",
    "longitude": "6.9373297691",
    "name": "Essen Mulheim Airport",
    "region": "North-Rhine-Westphalia",
    "timezone": "Europe/Berlin"
    },
    {
    "city": "Bielefeld",
    "country": "DE",
    "elevation_ft": "433",
    "iata": "BFE",
    "icao": "EDLI",
    "latitude": "51.9647216797",
    "longitude": "8.5444440842",
    "name": "Bielefeld Airport",
    "region": "North-Rhine-Westphalia",
    "timezone": "Europe/Berlin"
    },
    {
    "city": "Marl",
    "country": "DE",
    "elevation_ft": "240",
    "iata": "ZOJ",
    "icao": "EDLM",
    "latitude": "51.6472015381",
    "longitude": "7.1633300781",
    "name": "Marl-Loemuhle Airport",
    "region": "North-Rhine-Westphalia",
    "timezone": "Europe/Berlin"
    },
    {
    "city": "Monchengladbach",
    "country": "DE",
    "elevation_ft": "125",
    "iata": "MGL",
    "icao": "EDLN",
    "latitude": "51.2302780151",
    "longitude": "6.5044441223",
    "name": "Monchengladbach Airport",
    "region": "North-Rhine-Westphalia",
    "timezone": "Europe/Berlin"
    },
    {
    "city": "Paderborn",
    "country": "DE",
    "elevation_ft": "699",
    "iata": "PAD",
    "icao": "EDLP",
    "latitude": "51.6141014099",
    "longitude": "8.6163196564",
    "name": "Paderborn Lippstadt Airport",
    "region": "North-Rhine-Westphalia",
    "timezone": "Europe/Berlin"
    },
    {
    "city": "Weeze",
    "country": "DE",
    "elevation_ft": "106",
    "iata": "NRN",
    "icao": "EDLV",
    "latitude": "51.6024017334",
    "longitude": "6.1421699524",
    "name": "Niederrhein Airport",
    "region": "North-Rhine-Westphalia",
    "timezone": "Europe/Berlin"
    },
    {
    "city": "Dortmund",
    "country": "DE",
    "elevation_ft": "425",
    "iata": "DTM",
    "icao": "EDLW",
    "latitude": "51.5182991028",
    "longitude": "7.6122398377",
    "name": "Dortmund Airport",
    "region": "North-Rhine-Westphalia",
    "timezone": "Europe/Berlin"
    },
    {
    "city": "Augsburg",
    "country": "DE",
    "elevation_ft": "1516",
    "iata": "AGB",
    "icao": "EDMA",
    "latitude": "48.42527771",
    "longitude": "10.9316673279",
    "name": "Augsburg Airport",
    "region": "Bavaria",
    "timezone": "Europe/Berlin"
    },
    {
    "city": "",
    "country": "DE",
    "elevation_ft": "1947",
    "iata": "OBF",
    "icao": "EDMO",
    "latitude": "48.081401825",
    "longitude": "11.2831001282",
    "name": "Oberpfaffenhofen Airport",
    "region": "Bavaria",
    "timezone": "Europe/Berlin"
    },
    {
    "city": "Straubing",
    "country": "DE",
    "elevation_ft": "1047",
    "iata": "RBM",
    "icao": "EDMS",
    "latitude": "48.9008331299",
    "longitude": "12.516667366",
    "name": "Straubing Airport",
    "region": "Bavaria",
    "timezone": "Europe/Berlin"
    },
    {
    "city": "Friedrichshafen",
    "country": "DE",
    "elevation_ft": "1367",
    "iata": "FDH",
    "icao": "EDNY",
    "latitude": "47.6712989807",
    "longitude": "9.5114898682",
    "name": "Friedrichshafen Airport",
    "region": "Baden-Wuerttemberg",
    "timezone": "Europe/Berlin"
    },
    {
    "city": "Oschersleben",
    "country": "DE",
    "elevation_ft": "344",
    "iata": "FRF",
    "icao": "EDOL",
    "latitude": "52.0380554199",
    "longitude": "11.2055559158",
    "name": "Oschersleben Airport",
    "region": "Saxony-Anhalt",
    "timezone": "Europe/Berlin"
    },
    {
    "city": "",
    "country": "DE",
    "elevation_ft": "166",
    "iata": "SZW",
    "icao": "EDOP",
    "latitude": "53.4269981384",
    "longitude": "11.7833995819",
    "name": "Schwerin Parchim Airport",
    "region": "Mecklenburg-Vorpommern",
    "timezone": "Europe/Berlin"
    },
    {
    "city": "Bayreuth",
    "country": "DE",
    "elevation_ft": "1601",
    "iata": "BYU",
    "icao": "EDQD",
    "latitude": "49.9850006104",
    "longitude": "11.6400003433",
    "name": "Bayreuth Airport",
    "region": "Bavaria",
    "timezone": "Europe/Berlin"
    },
    {
    "city": "Ansbach",
    "country": "DE",
    "elevation_ft": "1371",
    "iata": "QOB",
    "icao": "EDQF",
    "latitude": "49.3611106873",
    "longitude": "10.6694440842",
    "name": "Ansbach-Petersdorf Airport",
    "region": "Bavaria",
    "timezone": "Europe/Berlin"
    },
    {
    "city": "Hof",
    "country": "DE",
    "elevation_ft": "1959",
    "iata": "HOQ",
    "icao": "EDQM",
    "latitude": "50.2886123657",
    "longitude": "11.8563890457",
    "name": "Hof-Plauen Airport",
    "region": "Bavaria",
    "timezone": "Europe/Berlin"
    },
    {
    "city": "Bitburg",
    "country": "DE",
    "elevation_ft": "1220",
    "iata": "BBJ",
    "icao": "EDRB",
    "latitude": "49.9452781677",
    "longitude": "6.5650000572",
    "name": "Bitburg Airport",
    "region": "Rheinland-Pfalz",
    "timezone": "Europe/Berlin"
    },
    {
    "city": "Zweibrucken",
    "country": "DE",
    "elevation_ft": "1132",
    "iata": "ZQW",
    "icao": "EDRZ",
    "latitude": "49.209400177",
    "longitude": "7.4005599022",
    "name": "Zweibrucken Airport",
    "region": "Rheinland-Pfalz",
    "timezone": "Europe/Berlin"
    },
    {
    "city": "Baden-Baden",
    "country": "DE",
    "elevation_ft": "408",
    "iata": "FKB",
    "icao": "EDSB",
    "latitude": "48.7793998718",
    "longitude": "8.0804996491",
    "name": "Karlsruhe Baden-Baden Airport",
    "region": "Baden-Wuerttemberg",
    "timezone": "Europe/Berlin"
    },
    {
    "city": "Donaueschingen",
    "country": "DE",
    "elevation_ft": "2231",
    "iata": "ZQL",
    "icao": "EDTD",
    "latitude": "47.9733314514",
    "longitude": "8.5222215653",
    "name": "Donaueschingen-Villingen Airport",
    "region": "Baden-Wuerttemberg",
    "timezone": "Europe/Berlin"
    },
    {
    "city": "",
    "country": "DE",
    "elevation_ft": "511",
    "iata": "LHA",
    "icao": "EDTL",
    "latitude": "48.3693008423",
    "longitude": "7.8277201653",
    "name": "Lahr Airport",
    "region": "Baden-Wuerttemberg",
    "timezone": "Europe/Berlin"
    },
    {
    "city": "",
    "country": "DE",
    "elevation_ft": "295",
    "iata": "BWE",
    "icao": "EDVE",
    "latitude": "52.3191986084",
    "longitude": "10.5560998917",
    "name": "Braunschweig Wolfsburg Airport",
    "region": "Lower-Saxony",
    "timezone": "Europe/Berlin"
    },
    {
    "city": "Kassel",
    "country": "DE",
    "elevation_ft": "909",
    "iata": "KSF",
    "icao": "EDVK",
    "latitude": "51.4083328247",
    "longitude": "9.3774995804",
    "name": "Kassel-Calden Airport",
    "region": "Hesse",
    "timezone": "Europe/Berlin"
    },
    {
    "city": "Bremerhaven",
    "country": "DE",
    "elevation_ft": "10",
    "iata": "BRV",
    "icao": "EDWB",
    "latitude": "53.506942749",
    "longitude": "8.5727777481",
    "name": "Bremerhaven Airport",
    "region": "Bremen",
    "timezone": "Europe/Berlin"
    },
    {
    "city": "Lemwerder",
    "country": "DE",
    "elevation_ft": "20",
    "iata": "XLW",
    "icao": "EDWD",
    "latitude": "53.1446990967",
    "longitude": "8.6244401932",
    "name": "Lemwerder Airport",
    "region": "Bremen",
    "timezone": "Europe/Berlin"
    },
    {
    "city": "Emden",
    "country": "DE",
    "elevation_ft": "3",
    "iata": "EME",
    "icao": "EDWE",
    "latitude": "53.3911094666",
    "longitude": "7.2274999619",
    "name": "Emden Airport",
    "region": "Lower-Saxony",
    "timezone": "Europe/Berlin"
    },
    {
    "city": "Wangerooge",
    "country": "DE",
    "elevation_ft": "7",
    "iata": "AGE",
    "icao": "EDWG",
    "latitude": "53.7827796936",
    "longitude": "7.9138889313",
    "name": "Wangerooge Airport",
    "region": "Lower-Saxony",
    "timezone": "Europe/Berlin"
    },
    {
    "city": "Wilhelmshaven",
    "country": "DE",
    "elevation_ft": "16",
    "iata": "WVN",
    "icao": "EDWI",
    "latitude": "53.5022201538",
    "longitude": "8.0522222519",
    "name": "Wilhelmshaven-Mariensiel Airport",
    "region": "Lower-Saxony",
    "timezone": "Europe/Berlin"
    },
    {
    "city": "Juist",
    "country": "DE",
    "elevation_ft": "7",
    "iata": "JUI",
    "icao": "EDWJ",
    "latitude": "53.6811103821",
    "longitude": "7.0558328629",
    "name": "Juist Airport",
    "region": "Lower-Saxony",
    "timezone": "Europe/Berlin"
    },
    {
    "city": "Langeoog",
    "country": "DE",
    "elevation_ft": "7",
    "iata": "LGO",
    "icao": "EDWL",
    "latitude": "53.7425003052",
    "longitude": "7.4977779388",
    "name": "Langeoog Airport",
    "region": "Lower-Saxony",
    "timezone": "Europe/Berlin"
    },
    {
    "city": "Klausheide",
    "country": "DE",
    "elevation_ft": "89",
    "iata": "ZOW",
    "icao": "EDWN",
    "latitude": "52.4575004578",
    "longitude": "7.1822218895",
    "name": "Nordhorn-Lingen Airport",
    "region": "Lower-Saxony",
    "timezone": "Europe/Berlin"
    },
    {
    "city": "Borkum",
    "country": "DE",
    "elevation_ft": "3",
    "iata": "BMK",
    "icao": "EDWR",
    "latitude": "53.5963897705",
    "longitude": "6.7091670036",
    "name": "Borkum Airport",
    "region": "Lower-Saxony",
    "timezone": "Europe/Berlin"
    },
    {
    "city": "Norddeich",
    "country": "DE",
    "elevation_ft": "3",
    "iata": "NOD",
    "icao": "EDWS",
    "latitude": "53.6330566406",
    "longitude": "7.1902780533",
    "name": "Norden-Norddeich Airport",
    "region": "Lower-Saxony",
    "timezone": "Europe/Berlin"
    },
    {
    "city": "Cloppenburg",
    "country": "DE",
    "elevation_ft": "128",
    "iata": "VAC",
    "icao": "EDWU",
    "latitude": "52.9083328247",
    "longitude": "8.040555954",
    "name": "Varrelbusch Airport",
    "region": "Lower-Saxony",
    "timezone": "Europe/Berlin"
    },
    {
    "city": "Norderney",
    "country": "DE",
    "elevation_ft": "7",
    "iata": "NRD",
    "icao": "EDWY",
    "latitude": "53.706943512",
    "longitude": "7.2300000191",
    "name": "Norderney Airport",
    "region": "Lower-Saxony",
    "timezone": "Europe/Berlin"
    },
    {
    "city": "Baltrum",
    "country": "DE",
    "elevation_ft": "7",
    "iata": "BMR",
    "icao": "EDWZ",
    "latitude": "53.7247238159",
    "longitude": "7.3733329773",
    "name": "Baltrum Airport",
    "region": "Lower-Saxony",
    "timezone": "Europe/Berlin"
    },
    {
    "city": "Busum",
    "country": "DE",
    "elevation_ft": "7",
    "iata": "HEI",
    "icao": "EDXB",
    "latitude": "54.1533317566",
    "longitude": "8.9016666412",
    "name": "Heide-Busum Airport",
    "region": "Schleswig-Holstein",
    "timezone": "Europe/Berlin"
    },
    {
    "city": "Flensburg",
    "country": "DE",
    "elevation_ft": "131",
    "iata": "FLF",
    "icao": "EDXF",
    "latitude": "54.7733345032",
    "longitude": "9.3788890839",
    "name": "Flensburg-Schaferhaus Airport",
    "region": "Schleswig-Holstein",
    "timezone": "Europe/Berlin"
    },
    {
    "city": "Helgoland",
    "country": "DE",
    "elevation_ft": "8",
    "iata": "HGL",
    "icao": "EDXH",
    "latitude": "54.1852798462",
    "longitude": "7.9158329964",
    "name": "Helgoland-Dune Airport",
    "region": "Schleswig-Holstein",
    "timezone": "Europe/Berlin"
    },
    {
    "city": "Sankt Peter-Ording",
    "country": "DE",
    "elevation_ft": "7",
    "iata": "PSH",
    "icao": "EDXO",
    "latitude": "54.3088874817",
    "longitude": "8.6869440079",
    "name": "St. Peter-Ording Airport",
    "region": "Schleswig-Holstein",
    "timezone": "Europe/Berlin"
    },
    {
    "city": "Westerland",
    "country": "DE",
    "elevation_ft": "51",
    "iata": "GWT",
    "icao": "EDXW",
    "latitude": "54.9132003784",
    "longitude": "8.340470314",
    "name": "Westerland Sylt Airport",
    "region": "Schleswig-Holstein",
    "timezone": "Europe/Berlin"
    },
    {
    "city": "Wyk auf Fohr",
    "country": "DE",
    "elevation_ft": "26",
    "iata": "OHR",
    "icao": "EDXY",
    "latitude": "54.6844444275",
    "longitude": "8.5283327103",
    "name": "Wyk auf Fohr Airport",
    "region": "Schleswig-Holstein",
    "timezone": "Europe/Berlin"
    },
    {
    "city": "Trier",
    "country": "DE",
    "elevation_ft": "1197",
    "iata": "SPM",
    "icao": "ETAD",
    "latitude": "49.9726982117",
    "longitude": "6.6925001144",
    "name": "Spangdahlem Air Base",
    "region": "Rheinland-Pfalz",
    "timezone": "Europe/Berlin"
    },
    {
    "city": "Ramstein",
    "country": "DE",
    "elevation_ft": "776",
    "iata": "RMS",
    "icao": "ETAR",
    "latitude": "49.4369010925",
    "longitude": "7.600279808",
    "name": "Ramstein Air Base",
    "region": "Rheinland-Pfalz",
    "timezone": "Europe/Berlin"
    },
    {
    "city": "Bamberg",
    "country": "DE",
    "elevation_ft": "837",
    "iata": "ZCD",
    "icao": "ETEJ",
    "latitude": "49.9205551147",
    "longitude": "10.9141674042",
    "name": "Bamberg-Breitenau Airport",
    "region": "Bavaria",
    "timezone": "Europe/Berlin"
    },
    {
    "city": "",
    "country": "DE",
    "elevation_ft": "129",
    "iata": "ZCN",
    "icao": "ETHC",
    "latitude": "52.5912017822",
    "longitude": "10.0221004486",
    "name": "Celle Airport",
    "region": "Lower-Saxony",
    "timezone": "Europe/Berlin"
    },
    {
    "city": "",
    "country": "DE",
    "elevation_ft": "129",
    "iata": "ZPQ",
    "icao": "ETHE",
    "latitude": "52.2911987305",
    "longitude": "7.3870000839",
    "name": "Rheine Bentlage Airport",
    "region": "North-Rhine-Westphalia",
    "timezone": "Europe/Berlin"
    },
    {
    "city": "Fritzlar",
    "country": "DE",
    "elevation_ft": "1345",
    "iata": "FRZ",
    "icao": "ETHF",
    "latitude": "51.1146",
    "longitude": "9.286",
    "name": "Fritzlar Airport",
    "region": "Hesse",
    "timezone": "Europe/Berlin"
    },
    {
    "city": "",
    "country": "DE",
    "elevation_ft": "368",
    "iata": "ZNF",
    "icao": "ETID",
    "latitude": "50.1692008972",
    "longitude": "8.9615898132",
    "name": "Hanau Army Air Field",
    "region": "Hesse",
    "timezone": "Europe/Berlin"
    },
    {
    "city": "",
    "country": "DE",
    "elevation_ft": "74",
    "iata": "NDZ",
    "icao": "ETMN",
    "latitude": "53.7677001953",
    "longitude": "8.6584997177",
    "name": "Nordholz Airport",
    "region": "Lower-Saxony",
    "timezone": "Europe/Berlin"
    },
    {
    "city": "",
    "country": "DE",
    "elevation_ft": "296",
    "iata": "GKE",
    "icao": "ETNG",
    "latitude": "50.9608001709",
    "longitude": "6.0424199104",
    "name": "Geilenkirchen Airport",
    "region": "North-Rhine-Westphalia",
    "timezone": "Europe/Berlin"
    },
    {
    "city": "Rostock",
    "country": "DE",
    "elevation_ft": "138",
    "iata": "RLG",
    "icao": "ETNL",
    "latitude": "53.9182014465",
    "longitude": "12.2783002853",
    "name": "Rostock-Laage Airport",
    "region": "Mecklenburg-Vorpommern",
    "timezone": "Europe/Berlin"
    },
    {
    "city": "",
    "country": "DE",
    "elevation_ft": "386",
    "iata": "QOE",
    "icao": "ETNN",
    "latitude": "50.831199646",
    "longitude": "6.6581702232",
    "name": "Norvenich Airport",
    "region": "North-Rhine-Westphalia",
    "timezone": "Europe/Berlin"
    },
    {
    "city": "",
    "country": "DE",
    "elevation_ft": "70",
    "iata": "WBG",
    "icao": "ETNS",
    "latitude": "54.4593009949",
    "longitude": "9.5163297653",
    "name": "Schleswig Airport",
    "region": "Schleswig-Holstein",
    "timezone": "Europe/Berlin"
    },
    {
    "city": "",
    "country": "DE",
    "elevation_ft": "228",
    "iata": "FNB",
    "icao": "ETNU",
    "latitude": "53.6021995544",
    "longitude": "13.3059997559",
    "name": "Neubrandenburg Airport",
    "region": "Mecklenburg-Vorpommern",
    "timezone": "Europe/Berlin"
    },
    {
    "city": "Wiesbaden",
    "country": "DE",
    "elevation_ft": "461",
    "iata": "WIE",
    "icao": "ETOU",
    "latitude": "50.0498008728",
    "longitude": "8.3254003525",
    "name": "Wiesbaden Army Airfield",
    "region": "Hesse",
    "timezone": "Europe/Berlin"
    },
    {
    "city": "Furstenfeldbruck",
    "country": "DE",
    "elevation_ft": "1703",
    "iata": "FEL",
    "icao": "ETSF",
    "latitude": "48.2055549622",
    "longitude": "11.2669439316",
    "name": "Furstenfeldbruck Airport",
    "region": "Bavaria",
    "timezone": "Europe/Berlin"
    },
    {
    "city": "Manching",
    "country": "DE",
    "elevation_ft": "1202",
    "iata": "IGS",
    "icao": "ETSI",
    "latitude": "48.7156982422",
    "longitude": "11.5340003967",
    "name": "Ingolstadt Manching Airport",
    "region": "Bavaria",
    "timezone": "Europe/Berlin"
    },
    {
    "city": "Gutersloh",
    "country": "DE",
    "elevation_ft": "236",
    "iata": "GUT",
    "icao": "ETUO",
    "latitude": "51.9227981567",
    "longitude": "8.3063297272",
    "name": "Gutersloh Airport",
    "region": "North-Rhine-Westphalia",
    "timezone": "Europe/Berlin"
    },
    {
    "city": "",
    "country": "DE",
    "elevation_ft": "0",
    "iata": "BGN",
    "icao": "ETUR",
    "latitude": "51.1996994019",
    "longitude": "6.1320800781",
    "name": "Brugge Air Base",
    "region": "North-Rhine-Westphalia",
    "timezone": "Europe/Berlin"
    }
]