[
    {
    "city": "Belfast",
    "country": "GB",
    "elevation_ft": "268",
    "iata": "BFS",
    "icao": "EGAA",
    "latitude": "54.6575012207",
    "longitude": "-6.2158298492",
    "name": "Belfast International Airport",
    "region": "Northern Ireland",
    "timezone": "Europe/London"
    },
    {
    "city": "Enniskillen",
    "country": "GB",
    "elevation_ft": "155",
    "iata": "ENK",
    "icao": "EGAB",
    "latitude": "54.3988990784",
    "longitude": "-7.6516699791",
    "name": "St Angelo Airport",
    "region": "Northern Ireland",
    "timezone": "Europe/London"
    },
    {
    "city": "Belfast",
    "country": "GB",
    "elevation_ft": "15",
    "iata": "BHD",
    "icao": "EGAC",
    "latitude": "54.6180992126",
    "longitude": "-5.8724999428",
    "name": "George Best Belfast City Airport",
    "region": "Northern Ireland",
    "timezone": "Europe/London"
    },
    {
    "city": "Derry",
    "country": "GB",
    "elevation_ft": "22",
    "iata": "LDY",
    "icao": "EGAE",
    "latitude": "55.0428009033",
    "longitude": "-7.1611099243",
    "name": "City of Derry Airport",
    "region": "Northern Ireland",
    "timezone": "Europe/London"
    },
    {
    "city": "Birmingham",
    "country": "GB",
    "elevation_ft": "327",
    "iata": "BHX",
    "icao": "EGBB",
    "latitude": "52.4538993835",
    "longitude": "-1.7480299473",
    "name": "Birmingham International Airport",
    "region": "England",
    "timezone": "Europe/London"
    },
    {
    "city": "Coventry",
    "country": "GB",
    "elevation_ft": "267",
    "iata": "CVT",
    "icao": "EGBE",
    "latitude": "52.3697013855",
    "longitude": "-1.4797199965",
    "name": "Coventry Airport",
    "region": "England",
    "timezone": "Europe/London"
    },
    {
    "city": "Staverton",
    "country": "GB",
    "elevation_ft": "101",
    "iata": "GLO",
    "icao": "EGBJ",
    "latitude": "51.8941993713",
    "longitude": "-2.1672201157",
    "name": "Gloucestershire Airport",
    "region": "England",
    "timezone": "Europe/London"
    },
    {
    "city": "Northampton",
    "country": "GB",
    "elevation_ft": "429",
    "iata": "ORM",
    "icao": "EGBK",
    "latitude": "52.3053016663",
    "longitude": "-0.7930560112",
    "name": "Sywell Aerodrome",
    "region": "England",
    "timezone": "Europe/London"
    },
    {
    "city": "Nottingham",
    "country": "GB",
    "elevation_ft": "138",
    "iata": "NQT",
    "icao": "EGBN",
    "latitude": "52.9199981689",
    "longitude": "-1.0791699886",
    "name": "Nottingham Airport",
    "region": "England",
    "timezone": "Europe/London"
    },
    {
    "city": "Manchester",
    "country": "GB",
    "elevation_ft": "257",
    "iata": "MAN",
    "icao": "EGCC",
    "latitude": "53.3536987305",
    "longitude": "-2.2749500275",
    "name": "Manchester Airport",
    "region": "England",
    "timezone": "Europe/London"
    },
    {
    "city": "Doncaster",
    "country": "GB",
    "elevation_ft": "55",
    "iata": "DSA",
    "icao": "EGCN",
    "latitude": "53.4805378105",
    "longitude": "-1.0106563568",
    "name": "Robin Hood Doncaster Sheffield Airport",
    "region": "England",
    "timezone": "Europe/London"
    },
    {
    "city": "Upavon",
    "country": "GB",
    "elevation_ft": "574",
    "iata": "UPV",
    "icao": "EGDJ",
    "latitude": "51.2862014771",
    "longitude": "-1.7820199728",
    "name": "Upavon Aerodrome",
    "region": "England",
    "timezone": "Europe/London"
    },
    {
    "city": "Lyneham",
    "country": "GB",
    "elevation_ft": "513",
    "iata": "LYE",
    "icao": "EGDL",
    "latitude": "51.5051002502",
    "longitude": "-1.9934300184",
    "name": "RAF Lyneham",
    "region": "England",
    "timezone": "Europe/London"
    },
    {
    "city": "St. Athan",
    "country": "GB",
    "elevation_ft": "163",
    "iata": "DGX",
    "icao": "EGDX",
    "latitude": "51.404800415",
    "longitude": "-3.4357500076",
    "name": "MOD St. Athan",
    "region": "Wales",
    "timezone": "Europe/London"
    },
    {
    "city": "Yeovil",
    "country": "GB",
    "elevation_ft": "75",
    "iata": "YEO",
    "icao": "EGDY",
    "latitude": "51.0093994141",
    "longitude": "-2.6388199329",
    "name": "RNAS Yeovilton",
    "region": "England",
    "timezone": "Europe/London"
    },
    {
    "city": "Campbeltown",
    "country": "GB",
    "elevation_ft": "42",
    "iata": "CAL",
    "icao": "EGEC",
    "latitude": "55.4371986389",
    "longitude": "-5.6863899231",
    "name": "Campbeltown Airport",
    "region": "Scotland",
    "timezone": "Europe/London"
    },
    {
    "city": "Eday",
    "country": "GB",
    "elevation_ft": "10",
    "iata": "EOI",
    "icao": "EGED",
    "latitude": "59.1906013489",
    "longitude": "-2.7722198963",
    "name": "Eday Airport",
    "region": "Scotland",
    "timezone": "Europe/London"
    },
    {
    "city": "Fair Isle",
    "country": "GB",
    "elevation_ft": "223",
    "iata": "FIE",
    "icao": "EGEF",
    "latitude": "59.5358009338",
    "longitude": "-1.6280599833",
    "name": "Fair Isle Airport",
    "region": "Scotland",
    "timezone": "Europe/London"
    },
    {
    "city": "Whalsay",
    "country": "GB",
    "elevation_ft": "100",
    "iata": "WHS",
    "icao": "EGEH",
    "latitude": "60.3774986267",
    "longitude": "-0.925556004",
    "name": "Whalsay Airport",
    "region": "Scotland",
    "timezone": "Europe/London"
    },
    {
    "city": "Coll Island",
    "country": "GB",
    "elevation_ft": "21",
    "iata": "COL",
    "icao": "EGEL",
    "latitude": "56.6018981934",
    "longitude": "-6.6177802086",
    "name": "Coll Airport",
    "region": "Scotland",
    "timezone": "Europe/London"
    },
    {
    "city": "North Ronaldsay",
    "country": "GB",
    "elevation_ft": "40",
    "iata": "NRL",
    "icao": "EGEN",
    "latitude": "59.3675003052",
    "longitude": "-2.4344398975",
    "name": "North Ronaldsay Airport",
    "region": "Scotland",
    "timezone": "Europe/London"
    },
    {
    "city": "North Connel",
    "country": "GB",
    "elevation_ft": "20",
    "iata": "OBN",
    "icao": "EGEO",
    "latitude": "56.4635009766",
    "longitude": "-5.3996701241",
    "name": "Oban Airport",
    "region": "Scotland",
    "timezone": "Europe/London"
    },
    {
    "city": "Papa Westray",
    "country": "GB",
    "elevation_ft": "91",
    "iata": "PPW",
    "icao": "EGEP",
    "latitude": "59.3516998291",
    "longitude": "-2.9002799988",
    "name": "Papa Westray Airport",
    "region": "Scotland",
    "timezone": "Europe/London"
    },
    {
    "city": "Stronsay",
    "country": "GB",
    "elevation_ft": "39",
    "iata": "SOY",
    "icao": "EGER",
    "latitude": "59.1553001404",
    "longitude": "-2.6413900852",
    "name": "Stronsay Airport",
    "region": "Scotland",
    "timezone": "Europe/London"
    },
    {
    "city": "Sanday",
    "country": "GB",
    "elevation_ft": "68",
    "iata": "NDY",
    "icao": "EGES",
    "latitude": "59.2503013611",
    "longitude": "-2.5766699314",
    "name": "Sanday Airport",
    "region": "Scotland",
    "timezone": "Europe/London"
    },
    {
    "city": "Lerwick",
    "country": "GB",
    "elevation_ft": "43",
    "iata": "LWK",
    "icao": "EGET",
    "latitude": "60.192199707",
    "longitude": "-1.2436100245",
    "name": "Lerwick / Tingwall Airport",
    "region": "Scotland",
    "timezone": "Europe/London"
    },
    {
    "city": "Westray",
    "country": "GB",
    "elevation_ft": "29",
    "iata": "WRY",
    "icao": "EGEW",
    "latitude": "59.3502998352",
    "longitude": "-2.9500000477",
    "name": "Westray Airport",
    "region": "Scotland",
    "timezone": "Europe/London"
    },
    {
    "city": "Colonsay",
    "country": "GB",
    "elevation_ft": "44",
    "iata": "CSA",
    "icao": "EGEY",
    "latitude": "56.0574989319",
    "longitude": "-6.243060112",
    "name": "Colonsay Airstrip",
    "region": "Scotland",
    "timezone": "Europe/London"
    },
    {
    "city": "Haverfordwest",
    "country": "GB",
    "elevation_ft": "159",
    "iata": "HAW",
    "icao": "EGFE",
    "latitude": "51.8330993652",
    "longitude": "-4.9611101151",
    "name": "Haverfordwest Airport",
    "region": "Wales",
    "timezone": "Europe/London"
    },
    {
    "city": "Cardiff",
    "country": "GB",
    "elevation_ft": "220",
    "iata": "CWL",
    "icao": "EGFF",
    "latitude": "51.3967018127",
    "longitude": "-3.3433299065",
    "name": "Cardiff International Airport",
    "region": "Wales",
    "timezone": "Europe/London"
    },
    {
    "city": "Swansea",
    "country": "GB",
    "elevation_ft": "299",
    "iata": "SWS",
    "icao": "EGFH",
    "latitude": "51.6053009033",
    "longitude": "-4.0678300858",
    "name": "Swansea Airport",
    "region": "Wales",
    "timezone": "Europe/London"
    },
    {
    "city": "Bristol",
    "country": "GB",
    "elevation_ft": "622",
    "iata": "BRS",
    "icao": "EGGD",
    "latitude": "51.3827018738",
    "longitude": "-2.7190899849",
    "name": "Bristol International Airport",
    "region": "England",
    "timezone": "Europe/London"
    },
    {
    "city": "Liverpool",
    "country": "GB",
    "elevation_ft": "80",
    "iata": "LPL",
    "icao": "EGGP",
    "latitude": "53.3335990906",
    "longitude": "-2.8497200012",
    "name": "Liverpool John Lennon Airport",
    "region": "England",
    "timezone": "Europe/London"
    },
    {
    "city": "London",
    "country": "GB",
    "elevation_ft": "526",
    "iata": "LTN",
    "icao": "EGGW",
    "latitude": "51.8746986389",
    "longitude": "-0.3683330119",
    "name": "London Luton Airport",
    "region": "England",
    "timezone": "Europe/London"
    },
    {
    "city": "Land's End",
    "country": "GB",
    "elevation_ft": "401",
    "iata": "LEQ",
    "icao": "EGHC",
    "latitude": "50.1027984619",
    "longitude": "-5.6705598831",
    "name": "Land's End Airport",
    "region": "England",
    "timezone": "Europe/London"
    },
    {
    "city": "Plymouth",
    "country": "GB",
    "elevation_ft": "476",
    "iata": "PLH",
    "icao": "EGHD",
    "latitude": "50.4227981567",
    "longitude": "-4.1058301926",
    "name": "Plymouth City Airport",
    "region": "England",
    "timezone": "Europe/London"
    },
    {
    "city": "St. Mary's",
    "country": "GB",
    "elevation_ft": "116",
    "iata": "ISC",
    "icao": "EGHE",
    "latitude": "49.9132995605",
    "longitude": "-6.2916698456",
    "name": "St. Mary's Airport",
    "region": "England",
    "timezone": "Europe/London"
    },
    {
    "city": "Bournemouth",
    "country": "GB",
    "elevation_ft": "38",
    "iata": "BOH",
    "icao": "EGHH",
    "latitude": "50.7799987793",
    "longitude": "-1.8424999714",
    "name": "Bournemouth Airport",
    "region": "England",
    "timezone": "Europe/London"
    },
    {
    "city": "Southampton",
    "country": "GB",
    "elevation_ft": "44",
    "iata": "SOU",
    "icao": "EGHI",
    "latitude": "50.9502983093",
    "longitude": "-1.3567999601",
    "name": "Southampton Airport",
    "region": "England",
    "timezone": "Europe/London"
    },
    {
    "city": "Bembridge",
    "country": "GB",
    "elevation_ft": "53",
    "iata": "BBP",
    "icao": "EGHJ",
    "latitude": "50.6781005859",
    "longitude": "-1.1094399691",
    "name": "Bembridge Airport",
    "region": "England",
    "timezone": "Europe/London"
    },
    {
    "city": "Lasham",
    "country": "GB",
    "elevation_ft": "618",
    "iata": "QLA",
    "icao": "EGHL",
    "latitude": "51.1871986389",
    "longitude": "-1.0334999561",
    "name": "Lasham Airport",
    "region": "England",
    "timezone": "Europe/London"
    },
    {
    "city": "Newquay",
    "country": "GB",
    "elevation_ft": "390",
    "iata": "NQY",
    "icao": "EGHQ",
    "latitude": "50.4406013489",
    "longitude": "-4.9954099655",
    "name": "Newquay Cornwall Airport",
    "region": "England",
    "timezone": "Europe/London"
    },
    {
    "city": "Chichester",
    "country": "GB",
    "elevation_ft": "98",
    "iata": "QUG",
    "icao": "EGHR",
    "latitude": "50.8594017029",
    "longitude": "-0.7591670156",
    "name": "Chichester/Goodwood Airport",
    "region": "England",
    "timezone": "Europe/London"
    },
    {
    "city": "Brighton",
    "country": "GB",
    "elevation_ft": "7",
    "iata": "ESH",
    "icao": "EGKA",
    "latitude": "50.8356018066",
    "longitude": "-0.2972219884",
    "name": "Shoreham Airport",
    "region": "England",
    "timezone": "Europe/London"
    },
    {
    "city": "London",
    "country": "GB",
    "elevation_ft": "598",
    "iata": "BQH",
    "icao": "EGKB",
    "latitude": "51.3307991028",
    "longitude": "0.0324999988",
    "name": "London Biggin Hill Airport",
    "region": "England",
    "timezone": "Europe/London"
    },
    {
    "city": "London",
    "country": "GB",
    "elevation_ft": "202",
    "iata": "LGW",
    "icao": "EGKK",
    "latitude": "51.1481018066",
    "longitude": "-0.1902779937",
    "name": "London Gatwick Airport",
    "region": "England",
    "timezone": "Europe/London"
    },
    {
    "city": "Redhill",
    "country": "GB",
    "elevation_ft": "222",
    "iata": "KRH",
    "icao": "EGKR",
    "latitude": "51.2136001587",
    "longitude": "-0.1386110038",
    "name": "Redhill Aerodrome",
    "region": "England",
    "timezone": "Europe/London"
    },
    {
    "city": "London",
    "country": "GB",
    "elevation_ft": "19",
    "iata": "LCY",
    "icao": "EGLC",
    "latitude": "51.5052986145",
    "longitude": "0.0552779995",
    "name": "London City Airport",
    "region": "England",
    "timezone": "Europe/London"
    },
    {
    "city": "Farnborough",
    "country": "GB",
    "elevation_ft": "238",
    "iata": "FAB",
    "icao": "EGLF",
    "latitude": "51.2757987976",
    "longitude": "-0.7763329744",
    "name": "Farnborough Airport",
    "region": "England",
    "timezone": "Europe/London"
    },
    {
    "city": "Yateley",
    "country": "GB",
    "elevation_ft": "325",
    "iata": "BBS",
    "icao": "EGLK",
    "latitude": "51.3238983154",
    "longitude": "-0.8475000262",
    "name": "Blackbushe Airport",
    "region": "England",
    "timezone": "Europe/London"
    },
    {
    "city": "London",
    "country": "GB",
    "elevation_ft": "83",
    "iata": "LHR",
    "icao": "EGLL",
    "latitude": "51.4706001282",
    "longitude": "-0.4619410038",
    "name": "London Heathrow Airport",
    "region": "England",
    "timezone": "Europe/London"
    },
    {
    "city": "Southend",
    "country": "GB",
    "elevation_ft": "49",
    "iata": "SEN",
    "icao": "EGMC",
    "latitude": "51.5713996887",
    "longitude": "0.695555985",
    "name": "Southend Airport",
    "region": "England",
    "timezone": "Europe/London"
    },
    {
    "city": "Lydd",
    "country": "GB",
    "elevation_ft": "13",
    "iata": "LYX",
    "icao": "EGMD",
    "latitude": "50.9561004639",
    "longitude": "0.9391670227",
    "name": "Lydd Airport",
    "region": "England",
    "timezone": "Europe/London"
    },
    {
    "city": "Manston",
    "country": "GB",
    "elevation_ft": "178",
    "iata": "MSE",
    "icao": "EGMH",
    "latitude": "51.3422012329",
    "longitude": "1.3461099863",
    "name": "Kent International Airport",
    "region": "England",
    "timezone": "Europe/London"
    },
    {
    "city": "Carlisle",
    "country": "GB",
    "elevation_ft": "190",
    "iata": "CAX",
    "icao": "EGNC",
    "latitude": "54.9375",
    "longitude": "-2.8091700077",
    "name": "Carlisle Airport",
    "region": "England",
    "timezone": "Europe/London"
    },
    {
    "city": "Blackpool",
    "country": "GB",
    "elevation_ft": "34",
    "iata": "BLK",
    "icao": "EGNH",
    "latitude": "53.7717018127",
    "longitude": "-3.0286099911",
    "name": "Blackpool International Airport",
    "region": "England",
    "timezone": "Europe/London"
    },
    {
    "city": "Grimsby",
    "country": "GB",
    "elevation_ft": "121",
    "iata": "HUY",
    "icao": "EGNJ",
    "latitude": "53.5744018555",
    "longitude": "-0.3508329988",
    "name": "Humberside Airport",
    "region": "England",
    "timezone": "Europe/London"
    },
    {
    "city": "Barrow-in-Furness",
    "country": "GB",
    "elevation_ft": "173",
    "iata": "BWF",
    "icao": "EGNL",
    "latitude": "54.1311988831",
    "longitude": "-3.2636699677",
    "name": "Barrow Walney Island Airport",
    "region": "England",
    "timezone": "Europe/London"
    },
    {
    "city": "Leeds",
    "country": "GB",
    "elevation_ft": "681",
    "iata": "LBA",
    "icao": "EGNM",
    "latitude": "53.8658981323",
    "longitude": "-1.6605700254",
    "name": "Leeds Bradford Airport",
    "region": "England",
    "timezone": "Europe/London"
    },
    {
    "city": "Hawarden",
    "country": "GB",
    "elevation_ft": "45",
    "iata": "CEG",
    "icao": "EGNR",
    "latitude": "53.1781005859",
    "longitude": "-2.9777801037",
    "name": "Hawarden Airport",
    "region": "Wales",
    "timezone": "Europe/London"
    },
    {
    "city": "Newcastle",
    "country": "GB",
    "elevation_ft": "266",
    "iata": "NCL",
    "icao": "EGNT",
    "latitude": "55.0374984741",
    "longitude": "-1.6916699409",
    "name": "Newcastle Airport",
    "region": "England",
    "timezone": "Europe/London"
    },
    {
    "city": "Durham",
    "country": "GB",
    "elevation_ft": "120",
    "iata": "MME",
    "icao": "EGNV",
    "latitude": "54.5092010498",
    "longitude": "-1.4294099808",
    "name": "Durham Tees Valley Airport",
    "region": "England",
    "timezone": "Europe/London"
    },
    {
    "city": "Nottingham",
    "country": "GB",
    "elevation_ft": "306",
    "iata": "EMA",
    "icao": "EGNX",
    "latitude": "52.8311004639",
    "longitude": "-1.3280600309",
    "name": "East Midlands Airport",
    "region": "England",
    "timezone": "Europe/London"
    },
    {
    "city": "Angelsey",
    "country": "GB",
    "elevation_ft": "37",
    "iata": "HLY",
    "icao": "EGOV",
    "latitude": "53.2481002808",
    "longitude": "-4.5353398323",
    "name": "Anglesey Airport",
    "region": "Wales",
    "timezone": "Europe/London"
    },
    {
    "city": "Orkney Islands",
    "country": "GB",
    "elevation_ft": "50",
    "iata": "KOI",
    "icao": "EGPA",
    "latitude": "58.9578018188",
    "longitude": "-2.9049999714",
    "name": "Kirkwall Airport",
    "region": "Scotland",
    "timezone": "Europe/London"
    },
    {
    "city": "Lerwick",
    "country": "GB",
    "elevation_ft": "20",
    "iata": "LSI",
    "icao": "EGPB",
    "latitude": "59.8788986206",
    "longitude": "-1.2955600023",
    "name": "Sumburgh Airport",
    "region": "Scotland",
    "timezone": "Europe/London"
    },
    {
    "city": "Wick",
    "country": "GB",
    "elevation_ft": "126",
    "iata": "WIC",
    "icao": "EGPC",
    "latitude": "58.4589004517",
    "longitude": "-3.0930600166",
    "name": "Wick Airport",
    "region": "Scotland",
    "timezone": "Europe/London"
    },
    {
    "city": "Aberdeen",
    "country": "GB",
    "elevation_ft": "215",
    "iata": "ABZ",
    "icao": "EGPD",
    "latitude": "57.2019004822",
    "longitude": "-2.1977798939",
    "name": "Aberdeen Dyce Airport",
    "region": "Scotland",
    "timezone": "Europe/London"
    },
    {
    "city": "Inverness",
    "country": "GB",
    "elevation_ft": "31",
    "iata": "INV",
    "icao": "EGPE",
    "latitude": "57.5424995422",
    "longitude": "-4.0475001335",
    "name": "Inverness Airport",
    "region": "Scotland",
    "timezone": "Europe/London"
    },
    {
    "city": "Glasgow",
    "country": "GB",
    "elevation_ft": "26",
    "iata": "GLA",
    "icao": "EGPF",
    "latitude": "55.8718986511",
    "longitude": "-4.4330601692",
    "name": "Glasgow International Airport",
    "region": "Scotland",
    "timezone": "Europe/London"
    },
    {
    "city": "Edinburgh",
    "country": "GB",
    "elevation_ft": "135",
    "iata": "EDI",
    "icao": "EGPH",
    "latitude": "55.9500007629",
    "longitude": "-3.3724999428",
    "name": "Edinburgh Airport",
    "region": "Scotland",
    "timezone": "Europe/London"
    },
    {
    "city": "Port Ellen",
    "country": "GB",
    "elevation_ft": "56",
    "iata": "ILY",
    "icao": "EGPI",
    "latitude": "55.6819000244",
    "longitude": "-6.2566699982",
    "name": "Islay Airport",
    "region": "Scotland",
    "timezone": "Europe/London"
    },
    {
    "city": "Glasgow",
    "country": "GB",
    "elevation_ft": "65",
    "iata": "PIK",
    "icao": "EGPK",
    "latitude": "55.5093994141",
    "longitude": "-4.5866699219",
    "name": "Glasgow Prestwick Airport",
    "region": "Scotland",
    "timezone": "Europe/London"
    },
    {
    "city": "Balivanich",
    "country": "GB",
    "elevation_ft": "19",
    "iata": "BEB",
    "icao": "EGPL",
    "latitude": "57.481098175",
    "longitude": "-7.3627800941",
    "name": "Benbecula Airport",
    "region": "Scotland",
    "timezone": "Europe/London"
    },
    {
    "city": "Shetland Islands",
    "country": "GB",
    "elevation_ft": "81",
    "iata": "SCS",
    "icao": "EGPM",
    "latitude": "60.432800293",
    "longitude": "-1.296110034",
    "name": "Scatsta Airport",
    "region": "Scotland",
    "timezone": "Europe/London"
    },
    {
    "city": "Dundee",
    "country": "GB",
    "elevation_ft": "17",
    "iata": "DND",
    "icao": "EGPN",
    "latitude": "56.4524993896",
    "longitude": "-3.0258300304",
    "name": "Dundee Airport",
    "region": "Scotland",
    "timezone": "Europe/London"
    },
    {
    "city": "Stornoway",
    "country": "GB",
    "elevation_ft": "26",
    "iata": "SYY",
    "icao": "EGPO",
    "latitude": "58.2155990601",
    "longitude": "-6.3311100006",
    "name": "Stornoway Airport",
    "region": "Scotland",
    "timezone": "Europe/London"
    },
    {
    "city": "Eoligarry",
    "country": "GB",
    "elevation_ft": "5",
    "iata": "BRR",
    "icao": "EGPR",
    "latitude": "57.0228004456",
    "longitude": "-7.4430599213",
    "name": "Barra Airport",
    "region": "Scotland",
    "timezone": "Europe/London"
    },
    {
    "city": "Perth",
    "country": "GB",
    "elevation_ft": "397",
    "iata": "PSL",
    "icao": "EGPT",
    "latitude": "56.439201355",
    "longitude": "-3.3722200394",
    "name": "Perth/Scone Airport",
    "region": "Scotland",
    "timezone": "Europe/London"
    },
    {
    "city": "Balemartine",
    "country": "GB",
    "elevation_ft": "38",
    "iata": "TRE",
    "icao": "EGPU",
    "latitude": "56.4991989136",
    "longitude": "-6.8691701889",
    "name": "Tiree Airport",
    "region": "Scotland",
    "timezone": "Europe/London"
    },
    {
    "city": "Shetland Islands",
    "country": "GB",
    "elevation_ft": "0",
    "iata": "UNT",
    "icao": "EGPW",
    "latitude": "60.7472000122",
    "longitude": "-0.8538500071",
    "name": "Unst Airport",
    "region": "Scotland",
    "timezone": "Europe/London"
    },
    {
    "city": "Ballykelly",
    "country": "GB",
    "elevation_ft": "85",
    "iata": "BOL",
    "icao": "EGQB",
    "latitude": "55.0602989197",
    "longitude": "-7.0202798843",
    "name": "Ballykelly Airport",
    "region": "Northern Ireland",
    "timezone": "Europe/London"
    },
    {
    "city": "Kinloss",
    "country": "GB",
    "elevation_ft": "22",
    "iata": "FSS",
    "icao": "EGQK",
    "latitude": "57.6493988037",
    "longitude": "-3.5606400967",
    "name": "RAF Kinloss",
    "region": "Scotland",
    "timezone": "Europe/London"
    },
    {
    "city": "St. Andrews",
    "country": "GB",
    "elevation_ft": "38",
    "iata": "ADX",
    "icao": "EGQL",
    "latitude": "56.3728981018",
    "longitude": "-2.8684399128",
    "name": "RAF Leuchars",
    "region": "Scotland",
    "timezone": "Europe/London"
    },
    {
    "city": "Lossiemouth",
    "country": "GB",
    "elevation_ft": "42",
    "iata": "LMO",
    "icao": "EGQS",
    "latitude": "57.7052001953",
    "longitude": "-3.3391699791",
    "name": "RAF Lossiemouth",
    "region": "Scotland",
    "timezone": "Europe/London"
    },
    {
    "city": "Cambridge",
    "country": "GB",
    "elevation_ft": "47",
    "iata": "CBG",
    "icao": "EGSC",
    "latitude": "52.2050018311",
    "longitude": "0.174999997",
    "name": "Cambridge Airport",
    "region": "England",
    "timezone": "Europe/London"
    },
    {
    "city": "Norwich",
    "country": "GB",
    "elevation_ft": "117",
    "iata": "NWI",
    "icao": "EGSH",
    "latitude": "52.6758003235",
    "longitude": "1.2827800512",
    "name": "Norwich International Airport",
    "region": "England",
    "timezone": "Europe/London"
    },
    {
    "city": "London",
    "country": "GB",
    "elevation_ft": "348",
    "iata": "STN",
    "icao": "EGSS",
    "latitude": "51.8849983215",
    "longitude": "0.2349999994",
    "name": "London Stansted Airport",
    "region": "England",
    "timezone": "Europe/London"
    },
    {
    "city": "Duxford",
    "country": "GB",
    "elevation_ft": "125",
    "iata": "QFO",
    "icao": "EGSU",
    "latitude": "52.090801239",
    "longitude": "0.1319440007",
    "name": "Duxford Airport",
    "region": "England",
    "timezone": "Europe/London"
    },
    {
    "city": "High Wycombe",
    "country": "GB",
    "elevation_ft": "515",
    "iata": "HYC",
    "icao": "EGTB",
    "latitude": "51.6116981506",
    "longitude": "-0.8083329797",
    "name": "Wycombe Air Park",
    "region": "England",
    "timezone": "Europe/London"
    },
    {
    "city": "Exeter",
    "country": "GB",
    "elevation_ft": "102",
    "iata": "EXT",
    "icao": "EGTE",
    "latitude": "50.7344017029",
    "longitude": "-3.4138898849",
    "name": "Exeter International Airport",
    "region": "England",
    "timezone": "Europe/London"
    },
    {
    "city": "Bristol",
    "country": "GB",
    "elevation_ft": "226",
    "iata": "FZO",
    "icao": "EGTG",
    "latitude": "51.5194015503",
    "longitude": "-2.5908300877",
    "name": "Bristol Filton Airport",
    "region": "England",
    "timezone": "Europe/London"
    },
    {
    "city": "Kidlington",
    "country": "GB",
    "elevation_ft": "270",
    "iata": "OXF",
    "icao": "EGTK",
    "latitude": "51.8368988037",
    "longitude": "-1.3200000525",
    "name": "Oxford (Kidlington) Airport",
    "region": "England",
    "timezone": "Europe/London"
    },
    {
    "city": "Rochester",
    "country": "GB",
    "elevation_ft": "436",
    "iata": "RCS",
    "icao": "EGTO",
    "latitude": "51.3518981934",
    "longitude": "0.5033329725",
    "name": "Rochester Airport",
    "region": "England",
    "timezone": "Europe/London"
    },
    {
    "city": "Benson",
    "country": "GB",
    "elevation_ft": "226",
    "iata": "BEX",
    "icao": "EGUB",
    "latitude": "51.6164016724",
    "longitude": "-1.0958299637",
    "name": "RAF Benson",
    "region": "England",
    "timezone": "Europe/London"
    },
    {
    "city": "Lakenheath",
    "country": "GB",
    "elevation_ft": "32",
    "iata": "LKZ",
    "icao": "EGUL",
    "latitude": "52.4093017578",
    "longitude": "0.5609999895",
    "name": "RAF Lakenheath",
    "region": "England",
    "timezone": "Europe/London"
    },
    {
    "city": "Mildenhall",
    "country": "GB",
    "elevation_ft": "33",
    "iata": "MHZ",
    "icao": "EGUN",
    "latitude": "52.3619003296",
    "longitude": "0.4864059985",
    "name": "RAF Mildenhall",
    "region": "England",
    "timezone": "Europe/London"
    },
    {
    "city": "St. Ives",
    "country": "GB",
    "elevation_ft": "135",
    "iata": "QUY",
    "icao": "EGUY",
    "latitude": "52.3572006226",
    "longitude": "-0.107832998",
    "name": "RAF Wyton",
    "region": "England",
    "timezone": "Europe/London"
    },
    {
    "city": "Fairford",
    "country": "GB",
    "elevation_ft": "286",
    "iata": "FFD",
    "icao": "EGVA",
    "latitude": "51.6822013855",
    "longitude": "-1.7900300026",
    "name": "RAF Fairford",
    "region": "England",
    "timezone": "Europe/London"
    },
    {
    "city": "Brize Norton",
    "country": "GB",
    "elevation_ft": "288",
    "iata": "BZZ",
    "icao": "EGVN",
    "latitude": "51.75",
    "longitude": "-1.5836199522",
    "name": "RAF Brize Norton",
    "region": "England",
    "timezone": "Europe/London"
    },
    {
    "city": "Odiham",
    "country": "GB",
    "elevation_ft": "405",
    "iata": "ODH",
    "icao": "EGVO",
    "latitude": "51.2341003418",
    "longitude": "-0.9428250194",
    "name": "RAF Odiham",
    "region": "England",
    "timezone": "Europe/London"
    },
    {
    "city": "Wethersfield",
    "country": "GB",
    "elevation_ft": "322",
    "iata": "WXF",
    "icao": "EGVT",
    "latitude": "51.9719009399",
    "longitude": "0.5094439983",
    "name": "Wethersfield Airport",
    "region": "England",
    "timezone": "Europe/London"
    },
    {
    "city": "London",
    "country": "GB",
    "elevation_ft": "124",
    "iata": "NHT",
    "icao": "EGWU",
    "latitude": "51.5530014038",
    "longitude": "-0.418166995",
    "name": "RAF Northolt",
    "region": "England",
    "timezone": "Europe/London"
    },
    {
    "city": "Coningsby",
    "country": "GB",
    "elevation_ft": "25",
    "iata": "QCY",
    "icao": "EGXC",
    "latitude": "53.0929985046",
    "longitude": "-0.1660140008",
    "name": "RAF Coningsby",
    "region": "England",
    "timezone": "Europe/London"
    },
    {
    "city": "Thetford",
    "country": "GB",
    "elevation_ft": "174",
    "iata": "BEQ",
    "icao": "EGXH",
    "latitude": "52.3426017761",
    "longitude": "0.7729390264",
    "name": "RAF Honington",
    "region": "England",
    "timezone": "Europe/London"
    },
    {
    "city": "Cottesmore",
    "country": "GB",
    "elevation_ft": "461",
    "iata": "OKH",
    "icao": "EGXJ",
    "latitude": "52.7356987",
    "longitude": "-0.648769021",
    "name": "RAF Cottesmore",
    "region": "England",
    "timezone": "Europe/London"
    },
    {
    "city": "Scampton",
    "country": "GB",
    "elevation_ft": "202",
    "iata": "SQZ",
    "icao": "EGXP",
    "latitude": "53.307800293",
    "longitude": "-0.5508329868",
    "name": "RAF Scampton",
    "region": "England",
    "timezone": "Europe/London"
    },
    {
    "city": "Linton-On-Ouse",
    "country": "GB",
    "elevation_ft": "53",
    "iata": "HRT",
    "icao": "EGXU",
    "latitude": "54.0489006042",
    "longitude": "-1.2527500391",
    "name": "RAF Linton-On-Ouse",
    "region": "England",
    "timezone": "Europe/London"
    },
    {
    "city": "Waddington",
    "country": "GB",
    "elevation_ft": "231",
    "iata": "WTN",
    "icao": "EGXW",
    "latitude": "53.1661987305",
    "longitude": "-0.5238109827",
    "name": "RAF Waddington",
    "region": "England",
    "timezone": "Europe/London"
    },
    {
    "city": "Marham",
    "country": "GB",
    "elevation_ft": "75",
    "iata": "MRH",
    "icao": "EGYM",
    "latitude": "52.648399353",
    "longitude": "0.5506920218",
    "name": "RAF Marham",
    "region": "England",
    "timezone": "Europe/London"
    },
    {
    "city": "Broadford",
    "country": "GB",
    "elevation_ft": "0",
    "iata": "SKL",
    "icao": "XBRO",
    "latitude": "57.2533988953",
    "longitude": "-5.8278999329",
    "name": "Skye Bridge Ashaig Airport",
    "region": "Scotland",
    "timezone": "Europe/London"
    }
]