[
    {
    "city": "Bia\u0142ystok",
    "country": "PL",
    "elevation_ft": "502",
    "iata": "QYY",
    "icao": "EPBK",
    "latitude": "53.101398468",
    "longitude": "23.1706008911",
    "name": "Bia\u0142ystok-Krywlany Airport",
    "region": "Podlasie",
    "timezone": "Europe/Warsaw"
    },
    {
    "city": "Biala Podlaska",
    "country": "PL",
    "elevation_ft": "495",
    "iata": "BXP",
    "icao": "EPBP",
    "latitude": "52.0057983398",
    "longitude": "23.1436004639",
    "name": "Biala Podlaska Airport",
    "region": "Lublin",
    "timezone": "Europe/Warsaw"
    },
    {
    "city": "Bydgoszcz",
    "country": "PL",
    "elevation_ft": "235",
    "iata": "BZG",
    "icao": "EPBY",
    "latitude": "53.0968017578",
    "longitude": "17.9776992798",
    "name": "Bydgoszcz Ignacy Jan Paderewski Airport",
    "region": "Kujawsko-Pomorskie",
    "timezone": "Europe/Warsaw"
    },
    {
    "city": "Gda\u0144sk",
    "country": "PL",
    "elevation_ft": "489",
    "iata": "GDN",
    "icao": "EPGD",
    "latitude": "54.3776016235",
    "longitude": "18.4661998749",
    "name": "Gda\u0144sk Lech Wa\u0142\u0119sa Airport",
    "region": "Pomerania",
    "timezone": "Europe/Warsaw"
    },
    {
    "city": "",
    "country": "PL",
    "elevation_ft": "830",
    "iata": "QLC",
    "icao": "EPGL",
    "latitude": "50.2694015503",
    "longitude": "18.6728000641",
    "name": "Gliwice Glider Airport",
    "region": "Silesia",
    "timezone": "Europe/Warsaw"
    },
    {
    "city": "Krak\u00f3w",
    "country": "PL",
    "elevation_ft": "791",
    "iata": "KRK",
    "icao": "EPKK",
    "latitude": "50.0777015686",
    "longitude": "19.7847995758",
    "name": "John Paul II International Airport Krak\u00f3w-Balice Airport",
    "region": "Lesser-Poland-Voivodeship",
    "timezone": "Europe/Warsaw"
    },
    {
    "city": "",
    "country": "PL",
    "elevation_ft": "249",
    "iata": "OSZ",
    "icao": "EPKO",
    "latitude": "54.0424995422",
    "longitude": "16.2656002045",
    "name": "Koszalin Zegrze Airport",
    "region": "West Pomerania",
    "timezone": "Europe/Warsaw"
    },
    {
    "city": "Katowice",
    "country": "PL",
    "elevation_ft": "995",
    "iata": "KTW",
    "icao": "EPKT",
    "latitude": "50.4743003845",
    "longitude": "19.0799999237",
    "name": "Katowice International Airport",
    "region": "Silesia",
    "timezone": "Europe/Warsaw"
    },
    {
    "city": "Czechowice-Dziedzice",
    "country": "PL",
    "elevation_ft": "1316",
    "iata": "QEO",
    "icao": "EPKW",
    "latitude": "49.9399986267",
    "longitude": "19.0219993591",
    "name": "Bielsko-Bialo Kaniow Airfield",
    "region": "Silesia",
    "timezone": "Europe/Warsaw"
    },
    {
    "city": "Lublin",
    "country": "PL",
    "elevation_ft": "633",
    "iata": "LUZ",
    "icao": "EPLB",
    "latitude": "51.240278",
    "longitude": "22.713611",
    "name": "Lublin Airport",
    "region": "Lublin",
    "timezone": "Europe/Warsaw"
    },
    {
    "city": "\u0141\u00f3d\u017a",
    "country": "PL",
    "elevation_ft": "604",
    "iata": "LCJ",
    "icao": "EPLL",
    "latitude": "51.7219009399",
    "longitude": "19.3980998993",
    "name": "\u0141\u00f3d\u017a W\u0142adys\u0142aw Reymont Airport",
    "region": "Kodz-Voivodeship",
    "timezone": "Europe/Warsaw"
    },
    {
    "city": "",
    "country": "PL",
    "elevation_ft": "791",
    "iata": "QLU",
    "icao": "EPLR",
    "latitude": "51.2219009399",
    "longitude": "22.3946990967",
    "name": "Lublin Radwiec Airport",
    "region": "Lublin",
    "timezone": "Europe/Warsaw"
    },
    {
    "city": "Warsaw",
    "country": "PL",
    "elevation_ft": "341",
    "iata": "WMI",
    "icao": "EPMO",
    "latitude": "52.4510993958",
    "longitude": "20.6518001556",
    "name": "Warsaw Modlin Airport",
    "region": "Mazovia",
    "timezone": "Europe/Warsaw"
    },
    {
    "city": "Nowy Targ",
    "country": "PL",
    "elevation_ft": "2060",
    "iata": "QWS",
    "icao": "EPNT",
    "latitude": "49.4627990723",
    "longitude": "20.0503005981",
    "name": "Nowy Targ Airport",
    "region": "Lesser-Poland-Voivodeship",
    "timezone": "Europe/Warsaw"
    },
    {
    "city": "Gdynia",
    "country": "PL",
    "elevation_ft": "144",
    "iata": "QYD",
    "icao": "EPOK",
    "latitude": "54.57970047",
    "longitude": "18.51720047",
    "name": "Oksywie Military Air Base",
    "region": "Pomerania",
    "timezone": "Europe/Warsaw"
    },
    {
    "city": "Opole",
    "country": "PL",
    "elevation_ft": "620",
    "iata": "QPM",
    "icao": "EPOP",
    "latitude": "50.6333007812",
    "longitude": "17.7817001343",
    "name": "Opole-Polska Nowa Wies Airport",
    "region": "Opole-Voivodeship",
    "timezone": "Europe/Warsaw"
    },
    {
    "city": "Pozna\u0144",
    "country": "PL",
    "elevation_ft": "308",
    "iata": "POZ",
    "icao": "EPPO",
    "latitude": "52.4210014343",
    "longitude": "16.8262996674",
    "name": "Pozna\u0144-\u0141awica Airport",
    "region": "Greater-Poland",
    "timezone": "Europe/Warsaw"
    },
    {
    "city": "Cz\u0119stochowa",
    "country": "PL",
    "elevation_ft": "860",
    "iata": "CZW",
    "icao": "EPRU",
    "latitude": "50.8849983215",
    "longitude": "19.20470047",
    "name": "Cz\u0119stochowa-Rudniki Airport",
    "region": "Silesia",
    "timezone": "Europe/Warsaw"
    },
    {
    "city": "Rzeszow",
    "country": "PL",
    "elevation_ft": "675",
    "iata": "RZE",
    "icao": "EPRZ",
    "latitude": "50.1100006104",
    "longitude": "22.0189990997",
    "name": "Rzeszow-Jasionka Airport",
    "region": "Subcarpathian-Voivodeship",
    "timezone": "Europe/Warsaw"
    },
    {
    "city": "Goleniow",
    "country": "PL",
    "elevation_ft": "154",
    "iata": "SZZ",
    "icao": "EPSC",
    "latitude": "53.5847015381",
    "longitude": "14.9021997452",
    "name": "Szczecin-Goleniow Solidarno\u015b\u0107 Airport",
    "region": "West Pomerania",
    "timezone": "Europe/Warsaw"
    },
    {
    "city": "Suwa\u0142ki",
    "country": "PL",
    "elevation_ft": "581",
    "iata": "ZWK",
    "icao": "EPSU",
    "latitude": "54.0727996826",
    "longitude": "22.8992004395",
    "name": "Suwa\u0142ki Airport",
    "region": "Podlasie",
    "timezone": "Europe/Warsaw"
    },
    {
    "city": "Warsaw",
    "country": "PL",
    "elevation_ft": "362",
    "iata": "WAW",
    "icao": "EPWA",
    "latitude": "52.1656990051",
    "longitude": "20.9671001434",
    "name": "Warsaw Chopin Airport",
    "region": "Mazovia",
    "timezone": "Europe/Warsaw"
    },
    {
    "city": "Wroc\u0142aw",
    "country": "PL",
    "elevation_ft": "404",
    "iata": "WRO",
    "icao": "EPWR",
    "latitude": "51.1026992798",
    "longitude": "16.885799408",
    "name": "Copernicus Wroc\u0142aw Airport",
    "region": "Lower-Silesia",
    "timezone": "Europe/Warsaw"
    },
    {
    "city": "Babimost",
    "country": "PL",
    "elevation_ft": "194",
    "iata": "IEG",
    "icao": "EPZG",
    "latitude": "52.1385002136",
    "longitude": "15.7986001968",
    "name": "Zielona G\u00f3ra-Babimost Airport",
    "region": "Lubusz",
    "timezone": "Europe/Warsaw"
    }
]