[
    {
    "city": "Dieppe",
    "country": "FR",
    "elevation_ft": "344",
    "iata": "DPE",
    "icao": "LFAB",
    "latitude": "49.8824996948",
    "longitude": "1.0852799416",
    "name": "St Aubin Airport",
    "region": "Normandy",
    "timezone": "Europe/Paris"
    },
    {
    "city": "Marck",
    "country": "FR",
    "elevation_ft": "12",
    "iata": "CQF",
    "icao": "LFAC",
    "latitude": "50.9621009827",
    "longitude": "1.9547599554",
    "name": "Calais-Dunkerque Airport",
    "region": "Hauts-de-France",
    "timezone": "Europe/Paris"
    },
    {
    "city": "Compiegne",
    "country": "FR",
    "elevation_ft": "315",
    "iata": "XCP",
    "icao": "LFAD",
    "latitude": "49.4343986511",
    "longitude": "2.8061099052",
    "name": "Compiegne Margny Airport",
    "region": "Hauts-de-France",
    "timezone": "Europe/Paris"
    },
    {
    "city": "Laon-Chambry",
    "country": "FR",
    "elevation_ft": "256",
    "iata": "XLN",
    "icao": "LFAF",
    "latitude": "49.5957984924",
    "longitude": "3.6316699982",
    "name": "Laon - Chambry Airport",
    "region": "Hauts-de-France",
    "timezone": "Europe/Paris"
    },
    {
    "city": "Peronne/Saint-Quentin",
    "country": "FR",
    "elevation_ft": "295",
    "iata": "XSJ",
    "icao": "LFAG",
    "latitude": "49.8684997559",
    "longitude": "3.0295801163",
    "name": "Peronne-Saint-Quentin Airport",
    "region": "Hauts-de-France",
    "timezone": "Europe/Paris"
    },
    {
    "city": "Les Moeres",
    "country": "FR",
    "elevation_ft": "-3",
    "iata": "XDK",
    "icao": "LFAK",
    "latitude": "51.040599823",
    "longitude": "2.5502800941",
    "name": "Dunkerque Les Moeres Airport",
    "region": "Hauts-de-France",
    "timezone": "Europe/Paris"
    },
    {
    "city": "Albert/Bray",
    "country": "FR",
    "elevation_ft": "364",
    "iata": "BYF",
    "icao": "LFAQ",
    "latitude": "49.9715003967",
    "longitude": "2.6976599693",
    "name": "Albert-Bray Airport",
    "region": "Hauts-de-France",
    "timezone": "Europe/Paris"
    },
    {
    "city": "Le Touquet-Paris-Plage",
    "country": "FR",
    "elevation_ft": "36",
    "iata": "LTQ",
    "icao": "LFAT",
    "latitude": "50.5173988342",
    "longitude": "1.6205899715",
    "name": "Le Touquet-Cote d'Opale Airport",
    "region": "Hauts-de-France",
    "timezone": "Europe/Paris"
    },
    {
    "city": "Valenciennes/Denain",
    "country": "FR",
    "elevation_ft": "177",
    "iata": "XVS",
    "icao": "LFAV",
    "latitude": "50.3258018494",
    "longitude": "3.4612600803",
    "name": "Valenciennes-Denain Airport",
    "region": "Hauts-de-France",
    "timezone": "Europe/Paris"
    },
    {
    "city": "Amiens/Glisy",
    "country": "FR",
    "elevation_ft": "208",
    "iata": "QAM",
    "icao": "LFAY",
    "latitude": "49.8730010986",
    "longitude": "2.3870699406",
    "name": "Amiens-Glisy Airport",
    "region": "Hauts-de-France",
    "timezone": "Europe/Paris"
    },
    {
    "city": "Agen/La Garenne",
    "country": "FR",
    "elevation_ft": "204",
    "iata": "AGF",
    "icao": "LFBA",
    "latitude": "44.1747016907",
    "longitude": "0.5905560255",
    "name": "Agen-La Garenne Airport",
    "region": "Nouvelle-Aquitaine",
    "timezone": "Europe/Paris"
    },
    {
    "city": "Bordeaux/Merignac",
    "country": "FR",
    "elevation_ft": "162",
    "iata": "BOD",
    "icao": "LFBD",
    "latitude": "44.8283004761",
    "longitude": "-0.7155560255",
    "name": "Bordeaux-Merignac (BA 106) Airport",
    "region": "Nouvelle-Aquitaine",
    "timezone": "Europe/Paris"
    },
    {
    "city": "Bergerac/Roumaniere",
    "country": "FR",
    "elevation_ft": "171",
    "iata": "EGC",
    "icao": "LFBE",
    "latitude": "44.8252983093",
    "longitude": "0.5186110139",
    "name": "Bergerac-Roumaniere Airport",
    "region": "Nouvelle-Aquitaine",
    "timezone": "Europe/Paris"
    },
    {
    "city": "Cognac/Chateaubernard",
    "country": "FR",
    "elevation_ft": "102",
    "iata": "CNG",
    "icao": "LFBG",
    "latitude": "45.6582984924",
    "longitude": "-0.3174999952",
    "name": "Cognac-Chateaubernard (BA 709) Air Base",
    "region": "Nouvelle-Aquitaine",
    "timezone": "Europe/Paris"
    },
    {
    "city": "La Rochelle/Ile de Re",
    "country": "FR",
    "elevation_ft": "74",
    "iata": "LRH",
    "icao": "LFBH",
    "latitude": "46.1791992188",
    "longitude": "-1.1952799559",
    "name": "La Rochelle-Ile de Re Airport",
    "region": "Nouvelle-Aquitaine",
    "timezone": "Europe/Paris"
    },
    {
    "city": "Poitiers/Biard",
    "country": "FR",
    "elevation_ft": "423",
    "iata": "PIS",
    "icao": "LFBI",
    "latitude": "46.5876998901",
    "longitude": "0.3066659868",
    "name": "Poitiers-Biard Airport",
    "region": "Nouvelle-Aquitaine",
    "timezone": "Europe/Paris"
    },
    {
    "city": "Montlucon/Gueret",
    "country": "FR",
    "elevation_ft": "1497",
    "iata": "MCU",
    "icao": "LFBK",
    "latitude": "46.2225990295",
    "longitude": "2.3639600277",
    "name": "Montlucon-Gueret Airport",
    "region": "Nouvelle-Aquitaine",
    "timezone": "Europe/Paris"
    },
    {
    "city": "Limoges/Bellegarde",
    "country": "FR",
    "elevation_ft": "1300",
    "iata": "LIG",
    "icao": "LFBL",
    "latitude": "45.8628005981",
    "longitude": "1.1794400215",
    "name": "Limoges Airport",
    "region": "Nouvelle-Aquitaine",
    "timezone": "Europe/Paris"
    },
    {
    "city": "Mont-de-Marsan",
    "country": "FR",
    "elevation_ft": "203",
    "iata": "XMJ",
    "icao": "LFBM",
    "latitude": "43.9117012024",
    "longitude": "-0.5074999928",
    "name": "Mont-de-Marsan (BA 118) Air Base",
    "region": "Nouvelle-Aquitaine",
    "timezone": "Europe/Paris"
    },
    {
    "city": "Niort/Souche",
    "country": "FR",
    "elevation_ft": "203",
    "iata": "NIT",
    "icao": "LFBN",
    "latitude": "46.3112983704",
    "longitude": "-0.4015029967",
    "name": "Niort-Souche Airport",
    "region": "Nouvelle-Aquitaine",
    "timezone": "Europe/Paris"
    },
    {
    "city": "Toulouse/Blagnac",
    "country": "FR",
    "elevation_ft": "499",
    "iata": "TLS",
    "icao": "LFBO",
    "latitude": "43.6291007996",
    "longitude": "1.3638199568",
    "name": "Toulouse-Blagnac Airport",
    "region": "Occitanie",
    "timezone": "Europe/Paris"
    },
    {
    "city": "Pau/Pyrenees (Uzein)",
    "country": "FR",
    "elevation_ft": "616",
    "iata": "PUF",
    "icao": "LFBP",
    "latitude": "43.3800010681",
    "longitude": "-0.41861099",
    "name": "Pau Pyrenees Airport",
    "region": "Nouvelle-Aquitaine",
    "timezone": "Europe/Paris"
    },
    {
    "city": "Tarbes/Lourdes/Pyrenees",
    "country": "FR",
    "elevation_ft": "1260",
    "iata": "LDE",
    "icao": "LFBT",
    "latitude": "43.1786994934",
    "longitude": "-0.0064389999",
    "name": "Tarbes-Lourdes-Pyrenees Airport",
    "region": "Occitanie",
    "timezone": "Europe/Paris"
    },
    {
    "city": "Angouleme/Brie/Champniers",
    "country": "FR",
    "elevation_ft": "436",
    "iata": "ANG",
    "icao": "LFBU",
    "latitude": "45.7291984558",
    "longitude": "0.2214560062",
    "name": "Angouleme-Brie-Champniers Airport",
    "region": "Nouvelle-Aquitaine",
    "timezone": "Europe/Paris"
    },
    {
    "city": "Brive-la-Gaillarde",
    "country": "FR",
    "elevation_ft": "379",
    "iata": "BVE",
    "icao": "LFBV",
    "latitude": "45.1507987976",
    "longitude": "1.4691699743",
    "name": "Brive-La Roche Airport",
    "region": "Nouvelle-Aquitaine",
    "timezone": "Europe/Paris"
    },
    {
    "city": "Perigueux/Bassillac",
    "country": "FR",
    "elevation_ft": "328",
    "iata": "PGX",
    "icao": "LFBX",
    "latitude": "45.1981010437",
    "longitude": "0.8155559897",
    "name": "Perigueux-Bassillac Airport",
    "region": "Nouvelle-Aquitaine",
    "timezone": "Europe/Paris"
    },
    {
    "city": "Perigueux",
    "country": "FR",
    "elevation_ft": "106",
    "iata": "XDA",
    "icao": "LFBY",
    "latitude": "43.689201355",
    "longitude": "-1.0688899755",
    "name": "Dax Seyresse Airport",
    "region": "Nouvelle-Aquitaine",
    "timezone": "Europe/Paris"
    },
    {
    "city": "Biarritz/Anglet/Bayonne",
    "country": "FR",
    "elevation_ft": "245",
    "iata": "BIQ",
    "icao": "LFBZ",
    "latitude": "43.4683990479",
    "longitude": "-1.5233199596",
    "name": "Biarritz-Anglet-Bayonne Airport",
    "region": "Nouvelle-Aquitaine",
    "timezone": "Europe/Paris"
    },
    {
    "city": "Biarritz",
    "country": "FR",
    "elevation_ft": "207",
    "iata": "XCX",
    "icao": "LFCA",
    "latitude": "46.7813987732",
    "longitude": "0.5519440174",
    "name": "Chatellerault Airport",
    "region": "Nouvelle-Aquitaine",
    "timezone": "Europe/Paris"
    },
    {
    "city": "Cahors/Lalbenque",
    "country": "FR",
    "elevation_ft": "912",
    "iata": "ZAO",
    "icao": "LFCC",
    "latitude": "44.351398468",
    "longitude": "1.4752800465",
    "name": "Cahors-Lalbenque Airport",
    "region": "Occitanie",
    "timezone": "Europe/Paris"
    },
    {
    "city": "Cahors",
    "country": "FR",
    "elevation_ft": "1207",
    "iata": "XGT",
    "icao": "LFCE",
    "latitude": "46.1791992188",
    "longitude": "1.9583300352",
    "name": "Gueret St Laurent Airport",
    "region": "Nouvelle-Aquitaine",
    "timezone": "Europe/Paris"
    },
    {
    "city": "Arcachon/La Teste-de-Buch",
    "country": "FR",
    "elevation_ft": "49",
    "iata": "XAC",
    "icao": "LFCH",
    "latitude": "44.5964012146",
    "longitude": "-1.1108299494",
    "name": "Arcachon-La Teste-de-Buch Airport",
    "region": "Nouvelle-Aquitaine",
    "timezone": "Europe/Paris"
    },
    {
    "city": "Albi/Le Sequestre",
    "country": "FR",
    "elevation_ft": "564",
    "iata": "LBI",
    "icao": "LFCI",
    "latitude": "43.913898468",
    "longitude": "2.1130599976",
    "name": "Albi-Le Sequestre Airport",
    "region": "Occitanie",
    "timezone": "Europe/Paris"
    },
    {
    "city": "Castres/Mazamet",
    "country": "FR",
    "elevation_ft": "788",
    "iata": "DCM",
    "icao": "LFCK",
    "latitude": "43.5563011169",
    "longitude": "2.2891800404",
    "name": "Castres-Mazamet Airport",
    "region": "Occitanie",
    "timezone": "Europe/Paris"
    },
    {
    "city": "Rodez/Marcillac",
    "country": "FR",
    "elevation_ft": "1910",
    "iata": "RDZ",
    "icao": "LFCR",
    "latitude": "44.4079017639",
    "longitude": "2.4826700687",
    "name": "Rodez-Marcillac Airport",
    "region": "Occitanie",
    "timezone": "Europe/Paris"
    },
    {
    "city": "Royan/Medis",
    "country": "FR",
    "elevation_ft": "72",
    "iata": "RYN",
    "icao": "LFCY",
    "latitude": "45.6281013489",
    "longitude": "-0.9725000262",
    "name": "Royan-Medis Airport",
    "region": "Nouvelle-Aquitaine",
    "timezone": "Europe/Paris"
    },
    {
    "city": "Montauban",
    "country": "FR",
    "elevation_ft": "351",
    "iata": "XMW",
    "icao": "LFDB",
    "latitude": "44.0256996155",
    "longitude": "1.3780399561",
    "name": "Montauban Airport",
    "region": "Occitanie",
    "timezone": "Europe/Paris"
    },
    {
    "city": "Libourne/Artigues-de-Lussac",
    "country": "FR",
    "elevation_ft": "157",
    "iata": "XLR",
    "icao": "LFDI",
    "latitude": "44.9824981689",
    "longitude": "-0.1347219944",
    "name": "Libourne-Artigues-de-Lussac Airport",
    "region": "Nouvelle-Aquitaine",
    "timezone": "Europe/Paris"
    },
    {
    "city": "Rochefort/Saint-Agnant",
    "country": "FR",
    "elevation_ft": "60",
    "iata": "RCO",
    "icao": "LFDN",
    "latitude": "45.8877983093",
    "longitude": "-0.9830560088",
    "name": "Rochefort-Saint-Agnant (BA 721) Airport",
    "region": "Nouvelle-Aquitaine",
    "timezone": "Europe/Paris"
    },
    {
    "city": "Rochefort",
    "country": "FR",
    "elevation_ft": "978",
    "iata": "XSL",
    "icao": "LFDS",
    "latitude": "44.7933006287",
    "longitude": "1.2447199821",
    "name": "Sarlat Domme Airport",
    "region": "Nouvelle-Aquitaine",
    "timezone": "Europe/Paris"
    },
    {
    "city": "Rochefort",
    "country": "FR",
    "elevation_ft": "1076",
    "iata": "XTB",
    "icao": "LFDT",
    "latitude": "43.2160987854",
    "longitude": "0.0786110014",
    "name": "Tarbes Laloubere Airport",
    "region": "Occitanie",
    "timezone": "Europe/Paris"
    },
    {
    "city": "Ile d'Yeu",
    "country": "FR",
    "elevation_ft": "79",
    "iata": "IDY",
    "icao": "LFEY",
    "latitude": "46.7186012268",
    "longitude": "-2.3911099434",
    "name": "Ile d'Yeu Airport",
    "region": "Pays-de-la-Loire",
    "timezone": "Europe/Paris"
    },
    {
    "city": "Colmar/Houssen",
    "country": "FR",
    "elevation_ft": "628",
    "iata": "CMR",
    "icao": "LFGA",
    "latitude": "48.1099014282",
    "longitude": "7.3590102196",
    "name": "Colmar-Houssen Airport",
    "region": "Grand Est",
    "timezone": "Europe/Paris"
    },
    {
    "city": "Beaune/Challanges",
    "country": "FR",
    "elevation_ft": "656",
    "iata": "XBV",
    "icao": "LFGF",
    "latitude": "47.0059013367",
    "longitude": "4.8934202194",
    "name": "Beaune-Challanges Airport",
    "region": "Bourgogne-Franche-Comte",
    "timezone": "Europe/Paris"
    },
    {
    "city": "Dole/Tavaux",
    "country": "FR",
    "elevation_ft": "645",
    "iata": "DLE",
    "icao": "LFGJ",
    "latitude": "47.0390014648",
    "longitude": "5.4272499084",
    "name": "Dole-Tavaux Airport",
    "region": "Bourgogne-Franche-Comte",
    "timezone": "Europe/Paris"
    },
    {
    "city": "Verdun/Le Rozelier",
    "country": "FR",
    "elevation_ft": "1230",
    "iata": "XVN",
    "icao": "LFGW",
    "latitude": "49.1223983765",
    "longitude": "5.4690499306",
    "name": "Verdun-Le Rozelier Airport",
    "region": "Grand Est",
    "timezone": "Europe/Paris"
    },
    {
    "city": "Verdun",
    "country": "FR",
    "elevation_ft": "4823",
    "iata": "MVV",
    "icao": "LFHM",
    "latitude": "45.8208007813",
    "longitude": "6.6522197723",
    "name": "Megeve Airport",
    "region": "Auvergne-Rhone-Alpes",
    "timezone": "Europe/Paris"
    },
    {
    "city": "Aubenas/Ardeche Meridional",
    "country": "FR",
    "elevation_ft": "923",
    "iata": "OBS",
    "icao": "LFHO",
    "latitude": "44.5442008972",
    "longitude": "4.3721899986",
    "name": "Aubenas-Ardeche Meridional Airport",
    "region": "Auvergne-Rhone-Alpes",
    "timezone": "Europe/Paris"
    },
    {
    "city": "Le Puy/Loudes",
    "country": "FR",
    "elevation_ft": "2731",
    "iata": "LPY",
    "icao": "LFHP",
    "latitude": "45.0806999207",
    "longitude": "3.7628901005",
    "name": "Le Puy-Loudes Airport",
    "region": "Auvergne-Rhone-Alpes",
    "timezone": "Europe/Paris"
    },
    {
    "city": "Bourg",
    "country": "FR",
    "elevation_ft": "6102",
    "iata": "AHZ",
    "icao": "LFHU",
    "latitude": "45.0882987976",
    "longitude": "6.0847201347",
    "name": "L'alpe D'huez Airport",
    "region": "Auvergne-Rhone-Alpes",
    "timezone": "Europe/Paris"
    },
    {
    "city": "Metz / Nancy",
    "country": "FR",
    "elevation_ft": "870",
    "iata": "ETZ",
    "icao": "LFJL",
    "latitude": "48.9821014404",
    "longitude": "6.2513198853",
    "name": "Metz-Nancy-Lorraine Airport",
    "region": "Grand Est",
    "timezone": "Europe/Paris"
    },
    {
    "city": "Angers/Marce",
    "country": "FR",
    "elevation_ft": "194",
    "iata": "ANE",
    "icao": "LFJR",
    "latitude": "47.5602989197",
    "longitude": "-0.3122220039",
    "name": "Angers-Loire Airport",
    "region": "Pays-de-la-Loire",
    "timezone": "Europe/Paris"
    },
    {
    "city": "Angers",
    "country": "FR",
    "elevation_ft": "1033",
    "iata": "XAV",
    "icao": "LFKA",
    "latitude": "45.6272010803",
    "longitude": "6.3297200203",
    "name": "Albertville Airport",
    "region": "Auvergne-Rhone-Alpes",
    "timezone": "Europe/Paris"
    },
    {
    "city": "Bastia/Poretta",
    "country": "FR",
    "elevation_ft": "26",
    "iata": "BIA",
    "icao": "LFKB",
    "latitude": "42.5527000427",
    "longitude": "9.4837303162",
    "name": "Bastia-Poretta Airport",
    "region": "Corsica",
    "timezone": "Europe/Paris"
    },
    {
    "city": "Calvi/Sainte-Catherine",
    "country": "FR",
    "elevation_ft": "209",
    "iata": "CLY",
    "icao": "LFKC",
    "latitude": "42.5307998657",
    "longitude": "8.7931900024",
    "name": "Calvi-Sainte-Catherine Airport",
    "region": "Corsica",
    "timezone": "Europe/Paris"
    },
    {
    "city": "Figari Sud-Corse",
    "country": "FR",
    "elevation_ft": "87",
    "iata": "FSC",
    "icao": "LFKF",
    "latitude": "41.5005989075",
    "longitude": "9.0977802277",
    "name": "Figari Sud-Corse Airport",
    "region": "Corsica",
    "timezone": "Europe/Paris"
    },
    {
    "city": "Ajaccio/Napoleon Bonaparte",
    "country": "FR",
    "elevation_ft": "18",
    "iata": "AJA",
    "icao": "LFKJ",
    "latitude": "41.9235992432",
    "longitude": "8.8029203415",
    "name": "Ajaccio-Napoleon Bonaparte Airport",
    "region": "Corsica",
    "timezone": "Europe/Paris"
    },
    {
    "city": "Propriano",
    "country": "FR",
    "elevation_ft": "13",
    "iata": "PRP",
    "icao": "LFKO",
    "latitude": "41.6605987549",
    "longitude": "8.889749527",
    "name": "Propriano Airport",
    "region": "Corsica",
    "timezone": "Europe/Paris"
    },
    {
    "city": "Solenzara",
    "country": "FR",
    "elevation_ft": "28",
    "iata": "SOZ",
    "icao": "LFKS",
    "latitude": "41.9244003296",
    "longitude": "9.4060001373",
    "name": "Solenzara (BA 126) Air Base",
    "region": "Corsica",
    "timezone": "Europe/Paris"
    },
    {
    "city": "Ajaccio",
    "country": "FR",
    "elevation_ft": "5636",
    "iata": "MFX",
    "icao": "LFKX",
    "latitude": "45.4068984985",
    "longitude": "6.5805602074",
    "name": "Meribel Airport",
    "region": "Auvergne-Rhone-Alpes",
    "timezone": "Europe/Paris"
    },
    {
    "city": "Auxerre/Branches",
    "country": "FR",
    "elevation_ft": "523",
    "iata": "AUF",
    "icao": "LFLA",
    "latitude": "47.8502006531",
    "longitude": "3.49710989",
    "name": "Auxerre-Branches Airport",
    "region": "Bourgogne-Franche-Comte",
    "timezone": "Europe/Paris"
    },
    {
    "city": "Chambery/Aix-les-Bains",
    "country": "FR",
    "elevation_ft": "779",
    "iata": "CMF",
    "icao": "LFLB",
    "latitude": "45.6380996704",
    "longitude": "5.88022995",
    "name": "Chambery-Savoie Airport",
    "region": "Auvergne-Rhone-Alpes",
    "timezone": "Europe/Paris"
    },
    {
    "city": "Clermont-Ferrand/Auvergne",
    "country": "FR",
    "elevation_ft": "1090",
    "iata": "CFE",
    "icao": "LFLC",
    "latitude": "45.7867012024",
    "longitude": "3.1691699028",
    "name": "Clermont-Ferrand Auvergne Airport",
    "region": "Auvergne-Rhone-Alpes",
    "timezone": "Europe/Paris"
    },
    {
    "city": "Bourges",
    "country": "FR",
    "elevation_ft": "529",
    "iata": "BOU",
    "icao": "LFLD",
    "latitude": "47.0581016541",
    "longitude": "2.3702800274",
    "name": "Bourges Airport",
    "region": "Centre",
    "timezone": "Europe/Paris"
    },
    {
    "city": "Annemasse",
    "country": "FR",
    "elevation_ft": "1620",
    "iata": "QNJ",
    "icao": "LFLI",
    "latitude": "46.1920013428",
    "longitude": "6.2683901787",
    "name": "Annemasse Airport",
    "region": "Auvergne-Rhone-Alpes",
    "timezone": "Europe/Paris"
    },
    {
    "city": "Courcheval",
    "country": "FR",
    "elevation_ft": "6588",
    "iata": "CVF",
    "icao": "LFLJ",
    "latitude": "45.3967018127",
    "longitude": "6.6347198486",
    "name": "Courchevel Airport",
    "region": "Auvergne-Rhone-Alpes",
    "timezone": "Europe/Paris"
    },
    {
    "city": "Lyon",
    "country": "FR",
    "elevation_ft": "821",
    "iata": "LYS",
    "icao": "LFLL",
    "latitude": "45.726398468",
    "longitude": "5.0908298492",
    "name": "Lyon Saint-Exupery Airport",
    "region": "Auvergne-Rhone-Alpes",
    "timezone": "Europe/Paris"
    },
    {
    "city": "Macon/Charnay",
    "country": "FR",
    "elevation_ft": "728",
    "iata": "QNX",
    "icao": "LFLM",
    "latitude": "46.2951011658",
    "longitude": "4.7957701683",
    "name": "Macon-Charnay Airport",
    "region": "Bourgogne-Franche-Comte",
    "timezone": "Europe/Paris"
    },
    {
    "city": "Saint-Yan",
    "country": "FR",
    "elevation_ft": "796",
    "iata": "SYT",
    "icao": "LFLN",
    "latitude": "46.4124984741",
    "longitude": "4.0132598877",
    "name": "Saint-Yan Airport",
    "region": "Bourgogne-Franche-Comte",
    "timezone": "Europe/Paris"
    },
    {
    "city": "Roanne/Renaison",
    "country": "FR",
    "elevation_ft": "1106",
    "iata": "RNE",
    "icao": "LFLO",
    "latitude": "46.0583000183",
    "longitude": "4.0013899803",
    "name": "Roanne-Renaison Airport",
    "region": "Auvergne-Rhone-Alpes",
    "timezone": "Europe/Paris"
    },
    {
    "city": "Annecy/Meythet",
    "country": "FR",
    "elevation_ft": "1521",
    "iata": "NCY",
    "icao": "LFLP",
    "latitude": "45.9291992188",
    "longitude": "6.098760128",
    "name": "Annecy-Haute-Savoie-Mont Blanc Airport",
    "region": "Auvergne-Rhone-Alpes",
    "timezone": "Europe/Paris"
    },
    {
    "city": "Annecy",
    "country": "FR",
    "elevation_ft": "240",
    "iata": "XMK",
    "icao": "LFLQ",
    "latitude": "44.5835990906",
    "longitude": "4.7405600548",
    "name": "Montelimar - Ancone Airport",
    "region": "Auvergne-Rhone-Alpes",
    "timezone": "Europe/Paris"
    },
    {
    "city": "Grenoble/Saint-Geoirs",
    "country": "FR",
    "elevation_ft": "1302",
    "iata": "GNB",
    "icao": "LFLS",
    "latitude": "45.3628997803",
    "longitude": "5.3293700218",
    "name": "Grenoble-Isere Airport",
    "region": "Auvergne-Rhone-Alpes",
    "timezone": "Europe/Paris"
    },
    {
    "city": "Valence/Chabeuil",
    "country": "FR",
    "elevation_ft": "525",
    "iata": "VAF",
    "icao": "LFLU",
    "latitude": "44.9216003418",
    "longitude": "4.9699001312",
    "name": "Valence-Chabeuil Airport",
    "region": "Auvergne-Rhone-Alpes",
    "timezone": "Europe/Paris"
    },
    {
    "city": "Vichy/Charmeil",
    "country": "FR",
    "elevation_ft": "817",
    "iata": "VHY",
    "icao": "LFLV",
    "latitude": "46.1697006226",
    "longitude": "3.4037399292",
    "name": "Vichy-Charmeil Airport",
    "region": "Auvergne-Rhone-Alpes",
    "timezone": "Europe/Paris"
    },
    {
    "city": "Aurillac",
    "country": "FR",
    "elevation_ft": "2096",
    "iata": "AUR",
    "icao": "LFLW",
    "latitude": "44.8913993835",
    "longitude": "2.4219400883",
    "name": "Aurillac Airport",
    "region": "Auvergne-Rhone-Alpes",
    "timezone": "Europe/Paris"
    },
    {
    "city": "Chateauroux/Deols",
    "country": "FR",
    "elevation_ft": "529",
    "iata": "CHR",
    "icao": "LFLX",
    "latitude": "46.8622016907",
    "longitude": "1.7306699753",
    "name": "Chateauroux-Deols Marcel Dassault Airport",
    "region": "Centre",
    "timezone": "Europe/Paris"
    },
    {
    "city": "Lyon/Bron",
    "country": "FR",
    "elevation_ft": "659",
    "iata": "LYN",
    "icao": "LFLY",
    "latitude": "45.7271995544",
    "longitude": "4.944270134",
    "name": "Lyon-Bron Airport",
    "region": "Auvergne-Rhone-Alpes",
    "timezone": "Europe/Paris"
    },
    {
    "city": "Cannes/Mandelieu",
    "country": "FR",
    "elevation_ft": "13",
    "iata": "CEQ",
    "icao": "LFMD",
    "latitude": "43.5419998169",
    "longitude": "6.9534797668",
    "name": "Cannes-Mandelieu Airport",
    "region": "Provence-Alpes-Cote-d'Azur",
    "timezone": "Europe/Paris"
    },
    {
    "city": "Saint-Etienne/Boutheon",
    "country": "FR",
    "elevation_ft": "1325",
    "iata": "EBU",
    "icao": "LFMH",
    "latitude": "45.540599823",
    "longitude": "4.2963900566",
    "name": "Saint-Etienne-Boutheon Airport",
    "region": "Auvergne-Rhone-Alpes",
    "timezone": "Europe/Paris"
    },
    {
    "city": "Istres/Le Tube",
    "country": "FR",
    "elevation_ft": "82",
    "iata": "QIE",
    "icao": "LFMI",
    "latitude": "43.5227012634",
    "longitude": "4.9238400459",
    "name": "Istres Le Tube/Istres Air Base (BA 125) Airport",
    "region": "Provence-Alpes-Cote-d'Azur",
    "timezone": "Europe/Paris"
    },
    {
    "city": "Carcassonne/Salvaza",
    "country": "FR",
    "elevation_ft": "433",
    "iata": "CCF",
    "icao": "LFMK",
    "latitude": "43.2159996033",
    "longitude": "2.306319952",
    "name": "Carcassonne Airport",
    "region": "Occitanie",
    "timezone": "Europe/Paris"
    },
    {
    "city": "Marseille",
    "country": "FR",
    "elevation_ft": "74",
    "iata": "MRS",
    "icao": "LFML",
    "latitude": "43.439271922",
    "longitude": "5.2214241028",
    "name": "Marseille Provence Airport",
    "region": "Provence-Alpes-Cote-d'Azur",
    "timezone": "Europe/Paris"
    },
    {
    "city": "Nice",
    "country": "FR",
    "elevation_ft": "12",
    "iata": "NCE",
    "icao": "LFMN",
    "latitude": "43.6584014893",
    "longitude": "7.2158699036",
    "name": "Nice-Cote d'Azur Airport",
    "region": "Provence-Alpes-Cote-d'Azur",
    "timezone": "Europe/Paris"
    },
    {
    "city": "Orange/Caritat",
    "country": "FR",
    "elevation_ft": "197",
    "iata": "XOG",
    "icao": "LFMO",
    "latitude": "44.140499115",
    "longitude": "4.8667201996",
    "name": "Orange-Caritat (BA 115) Air Base",
    "region": "Provence-Alpes-Cote-d'Azur",
    "timezone": "Europe/Paris"
    },
    {
    "city": "Perpignan/Rivesaltes",
    "country": "FR",
    "elevation_ft": "144",
    "iata": "PGF",
    "icao": "LFMP",
    "latitude": "42.740398407",
    "longitude": "2.8706700802",
    "name": "Perpignan-Rivesaltes (Llabanere) Airport",
    "region": "Occitanie",
    "timezone": "Europe/Paris"
    },
    {
    "city": "Le Castellet",
    "country": "FR",
    "elevation_ft": "1391",
    "iata": "CTT",
    "icao": "LFMQ",
    "latitude": "43.2524986267",
    "longitude": "5.7851901054",
    "name": "Le Castellet Airport",
    "region": "Provence-Alpes-Cote-d'Azur",
    "timezone": "Europe/Paris"
    },
    {
    "city": "Le Castellet",
    "country": "FR",
    "elevation_ft": "3714",
    "iata": "BAE",
    "icao": "LFMR",
    "latitude": "44.3883018494",
    "longitude": "6.6102800369",
    "name": "Barcelonnette - Saint-Pons Airport",
    "region": "Provence-Alpes-Cote-d'Azur",
    "timezone": "Europe/Paris"
    },
    {
    "city": "Ales/Deaux",
    "country": "FR",
    "elevation_ft": "668",
    "iata": "XAS",
    "icao": "LFMS",
    "latitude": "44.0696983337",
    "longitude": "4.1421198845",
    "name": "Ales-Deaux Airport",
    "region": "Occitanie",
    "timezone": "Europe/Paris"
    },
    {
    "city": "Montpellier/Mediterranee",
    "country": "FR",
    "elevation_ft": "17",
    "iata": "MPL",
    "icao": "LFMT",
    "latitude": "43.5761985779",
    "longitude": "3.9630100727",
    "name": "Montpellier-Mediterranee Airport",
    "region": "Occitanie",
    "timezone": "Europe/Paris"
    },
    {
    "city": "Beziers/Vias",
    "country": "FR",
    "elevation_ft": "56",
    "iata": "BZR",
    "icao": "LFMU",
    "latitude": "43.3235015869",
    "longitude": "3.3538999557",
    "name": "Beziers-Vias Airport",
    "region": "Occitanie",
    "timezone": "Europe/Paris"
    },
    {
    "city": "Avignon/Caumont",
    "country": "FR",
    "elevation_ft": "124",
    "iata": "AVN",
    "icao": "LFMV",
    "latitude": "43.9072990417",
    "longitude": "4.9018301964",
    "name": "Avignon-Caumont Airport",
    "region": "Provence-Alpes-Cote-d'Azur",
    "timezone": "Europe/Paris"
    },
    {
    "city": "Avignon",
    "country": "FR",
    "elevation_ft": "1986",
    "iata": "GAT",
    "icao": "LFNA",
    "latitude": "44.4550018311",
    "longitude": "6.037779808",
    "name": "Gap - Tallard Airport",
    "region": "Provence-Alpes-Cote-d'Azur",
    "timezone": "Europe/Paris"
    },
    {
    "city": "Mende/Brenoux",
    "country": "FR",
    "elevation_ft": "3362",
    "iata": "MEN",
    "icao": "LFNB",
    "latitude": "44.5021018982",
    "longitude": "3.5328199863",
    "name": "Mende-Brenoux Airport",
    "region": "Occitanie",
    "timezone": "Europe/Paris"
    },
    {
    "city": "Mende",
    "country": "FR",
    "elevation_ft": "2963",
    "iata": "SCP",
    "icao": "LFNC",
    "latitude": "44.7016983032",
    "longitude": "6.600279808",
    "name": "Mont-Dauphin - St-Crepin Airport",
    "region": "Provence-Alpes-Cote-d'Azur",
    "timezone": "Europe/Paris"
    },
    {
    "city": "Beauvais/Tille",
    "country": "FR",
    "elevation_ft": "359",
    "iata": "BVA",
    "icao": "LFOB",
    "latitude": "49.4543991089",
    "longitude": "2.1127800941",
    "name": "Paris Beauvais Tille Airport",
    "region": "Hauts-de-France",
    "timezone": "Europe/Paris"
    },
    {
    "city": "Saumur/Saint-Florent",
    "country": "FR",
    "elevation_ft": "269",
    "iata": "XSU",
    "icao": "LFOD",
    "latitude": "47.2568016052",
    "longitude": "-0.1151420027",
    "name": "Saumur-Saint-Florent Airport",
    "region": "Pays-de-la-Loire",
    "timezone": "Europe/Paris"
    },
    {
    "city": "Evreux/Fauville",
    "country": "FR",
    "elevation_ft": "464",
    "iata": "EVX",
    "icao": "LFOE",
    "latitude": "49.0287017822",
    "longitude": "1.2198599577",
    "name": "Evreux-Fauville (BA 105) Air Base",
    "region": "Normandy",
    "timezone": "Europe/Paris"
    },
    {
    "city": "Evreux",
    "country": "FR",
    "elevation_ft": "479",
    "iata": "XAN",
    "icao": "LFOF",
    "latitude": "48.4474983215",
    "longitude": "0.1091670021",
    "name": "Alencon Valframbert Airport",
    "region": "Normandy",
    "timezone": "Europe/Paris"
    },
    {
    "city": "Le Havre/Octeville",
    "country": "FR",
    "elevation_ft": "313",
    "iata": "LEH",
    "icao": "LFOH",
    "latitude": "49.5339012146",
    "longitude": "0.0880559981",
    "name": "Le Havre Octeville Airport",
    "region": "Normandy",
    "timezone": "Europe/Paris"
    },
    {
    "city": "Abbeville (Buigny/Saint-Maclou)",
    "country": "FR",
    "elevation_ft": "220",
    "iata": "XAB",
    "icao": "LFOI",
    "latitude": "50.1435012817",
    "longitude": "1.831889987",
    "name": "Abbeville-Buigny-Saint-Maclou Airport",
    "region": "Hauts-de-France",
    "timezone": "Europe/Paris"
    },
    {
    "city": "Orleans/Bricy",
    "country": "FR",
    "elevation_ft": "412",
    "iata": "ORE",
    "icao": "LFOJ",
    "latitude": "47.9878005981",
    "longitude": "1.7605600357",
    "name": "Orleans-Bricy (BA 123) Air Base",
    "region": "Centre",
    "timezone": "Europe/Paris"
    },
    {
    "city": "Chalons/Vatry",
    "country": "FR",
    "elevation_ft": "587",
    "iata": "XCR",
    "icao": "LFOK",
    "latitude": "48.7761001587",
    "longitude": "4.1844902039",
    "name": "Chalons-Vatry Air Base",
    "region": "Grand Est",
    "timezone": "Europe/Paris"
    },
    {
    "city": "Les Sables-d'Olonne",
    "country": "FR",
    "elevation_ft": "105",
    "iata": "LSO",
    "icao": "LFOO",
    "latitude": "46.4768981934",
    "longitude": "-1.7227799892",
    "name": "Les Sables-d'Olonne Talmont Airport",
    "region": "Pays-de-la-Loire",
    "timezone": "Europe/Paris"
    },
    {
    "city": "Rouen/Vallee de Seine",
    "country": "FR",
    "elevation_ft": "512",
    "iata": "URO",
    "icao": "LFOP",
    "latitude": "49.3842010498",
    "longitude": "1.1748000383",
    "name": "Rouen Airport",
    "region": "Normandy",
    "timezone": "Europe/Paris"
    },
    {
    "city": "Blois/Le Breuil",
    "country": "FR",
    "elevation_ft": "398",
    "iata": "XBQ",
    "icao": "LFOQ",
    "latitude": "47.6785011292",
    "longitude": "1.2088400126",
    "name": "Blois-Le Breuil Airport",
    "region": "Centre",
    "timezone": "Europe/Paris"
    },
    {
    "city": "Blois",
    "country": "FR",
    "elevation_ft": "509",
    "iata": "QTJ",
    "icao": "LFOR",
    "latitude": "48.4589004517",
    "longitude": "1.5238900185",
    "name": "Chartres Champhol Airport",
    "region": "Centre",
    "timezone": "Europe/Paris"
    },
    {
    "city": "Tours/Val de Loire (Loire Valley)",
    "country": "FR",
    "elevation_ft": "357",
    "iata": "TUF",
    "icao": "LFOT",
    "latitude": "47.4322013855",
    "longitude": "0.7276059985",
    "name": "Tours-Val-de-Loire Airport",
    "region": "Centre",
    "timezone": "Europe/Paris"
    },
    {
    "city": "Cholet/Le Pontreau",
    "country": "FR",
    "elevation_ft": "443",
    "iata": "CET",
    "icao": "LFOU",
    "latitude": "47.0820999146",
    "longitude": "-0.8770639896",
    "name": "Cholet Le Pontreau Airport",
    "region": "Pays-de-la-Loire",
    "timezone": "Europe/Paris"
    },
    {
    "city": "Laval/Entrammes",
    "country": "FR",
    "elevation_ft": "330",
    "iata": "LVA",
    "icao": "LFOV",
    "latitude": "48.0313987732",
    "longitude": "-0.7429860234",
    "name": "Laval-Entrammes Airport",
    "region": "Pays-de-la-Loire",
    "timezone": "Europe/Paris"
    },
    {
    "city": "Paris",
    "country": "FR",
    "elevation_ft": "218",
    "iata": "LBG",
    "icao": "LFPB",
    "latitude": "48.9693984985",
    "longitude": "2.4413900375",
    "name": "Paris-Le Bourget Airport",
    "region": "Ile-de-France",
    "timezone": "Europe/Paris"
    },
    {
    "city": "Creil",
    "country": "FR",
    "elevation_ft": "291",
    "iata": "CSF",
    "icao": "LFPC",
    "latitude": "49.2535018921",
    "longitude": "2.5191400051",
    "name": "Creil Air Base",
    "region": "Hauts-de-France",
    "timezone": "Europe/Paris"
    },
    {
    "city": "Paris",
    "country": "FR",
    "elevation_ft": "392",
    "iata": "CDG",
    "icao": "LFPG",
    "latitude": "49.0127983093",
    "longitude": "2.5499999523",
    "name": "Charles de Gaulle International Airport",
    "region": "Ile-de-France",
    "timezone": "Europe/Paris"
    },
    {
    "city": "Toussus-le-Noble",
    "country": "FR",
    "elevation_ft": "538",
    "iata": "TNF",
    "icao": "LFPN",
    "latitude": "48.7518997192",
    "longitude": "2.1061899662",
    "name": "Toussus-le-Noble Airport",
    "region": "Ile-de-France",
    "timezone": "Europe/Paris"
    },
    {
    "city": "Paris",
    "country": "FR",
    "elevation_ft": "291",
    "iata": "ORY",
    "icao": "LFPO",
    "latitude": "48.7252998352",
    "longitude": "2.3594400883",
    "name": "Paris-Orly Airport",
    "region": "Ile-de-France",
    "timezone": "Europe/Paris"
    },
    {
    "city": "Pontoise",
    "country": "FR",
    "elevation_ft": "325",
    "iata": "POX",
    "icao": "LFPT",
    "latitude": "49.0965995789",
    "longitude": "2.0408298969",
    "name": "Pontoise - Cormeilles-en-Vexin Airport",
    "region": "Ile-de-France",
    "timezone": "Europe/Paris"
    },
    {
    "city": "Villacoublay/Velizy",
    "country": "FR",
    "elevation_ft": "584",
    "iata": "VIY",
    "icao": "LFPV",
    "latitude": "48.7743988037",
    "longitude": "2.2015399933",
    "name": "Villacoublay-Velizy (BA 107) Air Base",
    "region": "Ile-de-France",
    "timezone": "Europe/Paris"
    },
    {
    "city": "Troyes/Barberey",
    "country": "FR",
    "elevation_ft": "388",
    "iata": "QYR",
    "icao": "LFQB",
    "latitude": "48.322101593",
    "longitude": "4.016699791",
    "name": "Troyes-Barberey Airport",
    "region": "Grand Est",
    "timezone": "Europe/Paris"
    },
    {
    "city": "Nevers/Fourchambault",
    "country": "FR",
    "elevation_ft": "602",
    "iata": "NVS",
    "icao": "LFQG",
    "latitude": "47.0026016235",
    "longitude": "3.1133298874",
    "name": "Nevers-Fourchambault Airport",
    "region": "Bourgogne-Franche-Comte",
    "timezone": "Europe/Paris"
    },
    {
    "city": "Cambrai/Epinoy",
    "country": "FR",
    "elevation_ft": "257",
    "iata": "XCB",
    "icao": "LFQI",
    "latitude": "50.2218017578",
    "longitude": "3.154239893",
    "name": "Cambrai-Epinoy (BA 103) Air Base",
    "region": "Hauts-de-France",
    "timezone": "Europe/Paris"
    },
    {
    "city": "Maubeuge/Elesmes",
    "country": "FR",
    "elevation_ft": "452",
    "iata": "XME",
    "icao": "LFQJ",
    "latitude": "50.3105010986",
    "longitude": "4.0331201553",
    "name": "Maubeuge-Elesmes Airport",
    "region": "Hauts-de-France",
    "timezone": "Europe/Paris"
    },
    {
    "city": "Lille/Lesquin",
    "country": "FR",
    "elevation_ft": "157",
    "iata": "LIL",
    "icao": "LFQQ",
    "latitude": "50.5619010925",
    "longitude": "3.0894401073",
    "name": "Lille-Lesquin Airport",
    "region": "Hauts-de-France",
    "timezone": "Europe/Paris"
    },
    {
    "city": "Merville/Calonne",
    "country": "FR",
    "elevation_ft": "61",
    "iata": "HZB",
    "icao": "LFQT",
    "latitude": "50.6184005737",
    "longitude": "2.6422400475",
    "name": "Merville-Calonne Airport",
    "region": "Hauts-de-France",
    "timezone": "Europe/Paris"
    },
    {
    "city": "Charleville-Mezieres",
    "country": "FR",
    "elevation_ft": "492",
    "iata": "XCZ",
    "icao": "LFQV",
    "latitude": "49.7839012146",
    "longitude": "4.6470799446",
    "name": "Charleville-Mezieres Airport",
    "region": "Grand Est",
    "timezone": "Europe/Paris"
    },
    {
    "city": "Vesoul/Frotey",
    "country": "FR",
    "elevation_ft": "1249",
    "iata": "XVO",
    "icao": "LFQW",
    "latitude": "47.6375999451",
    "longitude": "6.2039198875",
    "name": "Vesoul-Frotey Airport",
    "region": "Bourgogne-Franche-Comte",
    "timezone": "Europe/Paris"
    },
    {
    "city": "Brest/Guipavas",
    "country": "FR",
    "elevation_ft": "325",
    "iata": "BES",
    "icao": "LFRB",
    "latitude": "48.4478988647",
    "longitude": "-4.4185400009",
    "name": "Brest Bretagne Airport",
    "region": "Brittany",
    "timezone": "Europe/Paris"
    },
    {
    "city": "Cherbourg/Maupertus",
    "country": "FR",
    "elevation_ft": "459",
    "iata": "CER",
    "icao": "LFRC",
    "latitude": "49.650100708",
    "longitude": "-1.4702800512",
    "name": "Cherbourg-Maupertus Airport",
    "region": "Normandy",
    "timezone": "Europe/Paris"
    },
    {
    "city": "Dinard/Pleurtuit/Saint-Malo",
    "country": "FR",
    "elevation_ft": "219",
    "iata": "DNR",
    "icao": "LFRD",
    "latitude": "48.5876998901",
    "longitude": "-2.0799601078",
    "name": "Dinard-Pleurtuit-Saint-Malo Airport",
    "region": "Brittany",
    "timezone": "Europe/Paris"
    },
    {
    "city": "La Baule-Escoublac",
    "country": "FR",
    "elevation_ft": "105",
    "iata": "LBY",
    "icao": "LFRE",
    "latitude": "47.2893981934",
    "longitude": "-2.3463900089",
    "name": "La Baule-Escoublac Airport",
    "region": "Pays-de-la-Loire",
    "timezone": "Europe/Paris"
    },
    {
    "city": "Granville",
    "country": "FR",
    "elevation_ft": "45",
    "iata": "GFR",
    "icao": "LFRF",
    "latitude": "48.8830986023",
    "longitude": "-1.5641700029",
    "name": "Granville Airport",
    "region": "Normandy",
    "timezone": "Europe/Paris"
    },
    {
    "city": "Deauville",
    "country": "FR",
    "elevation_ft": "479",
    "iata": "DOL",
    "icao": "LFRG",
    "latitude": "49.3652992249",
    "longitude": "0.1543059945",
    "name": "Deauville-Saint-Gatien Airport",
    "region": "Normandy",
    "timezone": "Europe/Paris"
    },
    {
    "city": "Lorient/Lann/Bihoue",
    "country": "FR",
    "elevation_ft": "160",
    "iata": "LRT",
    "icao": "LFRH",
    "latitude": "47.7606010437",
    "longitude": "-3.4400000572",
    "name": "Lorient South Brittany (Bretagne Sud) Airport",
    "region": "Brittany",
    "timezone": "Europe/Paris"
    },
    {
    "city": "La Roche-sur-Yon/Les Ajoncs",
    "country": "FR",
    "elevation_ft": "299",
    "iata": "EDM",
    "icao": "LFRI",
    "latitude": "46.7019004822",
    "longitude": "-1.3786300421",
    "name": "La Roche-sur-Yon Airport",
    "region": "Pays-de-la-Loire",
    "timezone": "Europe/Paris"
    },
    {
    "city": "Landivisiau",
    "country": "FR",
    "elevation_ft": "348",
    "iata": "LDV",
    "icao": "LFRJ",
    "latitude": "48.5303001404",
    "longitude": "-4.1516399384",
    "name": "Landivisiau Air Base",
    "region": "Brittany",
    "timezone": "Europe/Paris"
    },
    {
    "city": "Caen/Carpiquet",
    "country": "FR",
    "elevation_ft": "256",
    "iata": "CFR",
    "icao": "LFRK",
    "latitude": "49.1733016968",
    "longitude": "-0.4499999881",
    "name": "Caen-Carpiquet Airport",
    "region": "Normandy",
    "timezone": "Europe/Paris"
    },
    {
    "city": "Le Mans/Arnage",
    "country": "FR",
    "elevation_ft": "194",
    "iata": "LME",
    "icao": "LFRM",
    "latitude": "47.948600769",
    "longitude": "0.2016669959",
    "name": "Le Mans-Arnage Airport",
    "region": "Pays-de-la-Loire",
    "timezone": "Europe/Paris"
    },
    {
    "city": "Rennes/Saint-Jacques",
    "country": "FR",
    "elevation_ft": "124",
    "iata": "RNS",
    "icao": "LFRN",
    "latitude": "48.0694999695",
    "longitude": "-1.7347899675",
    "name": "Rennes-Saint-Jacques Airport",
    "region": "Brittany",
    "timezone": "Europe/Paris"
    },
    {
    "city": "Lannion",
    "country": "FR",
    "elevation_ft": "290",
    "iata": "LAI",
    "icao": "LFRO",
    "latitude": "48.7543983459",
    "longitude": "-3.4716598988",
    "name": "Lannion-Cote de Granit Airport",
    "region": "Brittany",
    "timezone": "Europe/Paris"
    },
    {
    "city": "Quimper/Pluguffan",
    "country": "FR",
    "elevation_ft": "297",
    "iata": "UIP",
    "icao": "LFRQ",
    "latitude": "47.9749984741",
    "longitude": "-4.1677899361",
    "name": "Quimper-Cornouaille Airport",
    "region": "Brittany",
    "timezone": "Europe/Paris"
    },
    {
    "city": "Nantes",
    "country": "FR",
    "elevation_ft": "90",
    "iata": "NTE",
    "icao": "LFRS",
    "latitude": "47.1531982422",
    "longitude": "-1.610730052",
    "name": "Nantes Atlantique Airport",
    "region": "Pays-de-la-Loire",
    "timezone": "Europe/Paris"
    },
    {
    "city": "Saint-Brieuc/Armor",
    "country": "FR",
    "elevation_ft": "453",
    "iata": "SBK",
    "icao": "LFRT",
    "latitude": "48.5377998352",
    "longitude": "-2.8544399738",
    "name": "Saint-Brieuc-Armor Airport",
    "region": "Brittany",
    "timezone": "Europe/Paris"
    },
    {
    "city": "Morlaix/Ploujean",
    "country": "FR",
    "elevation_ft": "272",
    "iata": "MXN",
    "icao": "LFRU",
    "latitude": "48.6031990051",
    "longitude": "-3.8157799244",
    "name": "Morlaix-Ploujean Airport",
    "region": "Brittany",
    "timezone": "Europe/Paris"
    },
    {
    "city": "Vannes/Meucon",
    "country": "FR",
    "elevation_ft": "446",
    "iata": "VNE",
    "icao": "LFRV",
    "latitude": "47.7233009338",
    "longitude": "-2.7185599804",
    "name": "Vannes-Meucon Airport",
    "region": "Brittany",
    "timezone": "Europe/Paris"
    },
    {
    "city": "Saint-Nazaire/Montoir",
    "country": "FR",
    "elevation_ft": "13",
    "iata": "SNR",
    "icao": "LFRZ",
    "latitude": "47.3121986389",
    "longitude": "-2.1491799355",
    "name": "Saint-Nazaire-Montoir Airport",
    "region": "Pays-de-la-Loire",
    "timezone": "Europe/Paris"
    },
    {
    "city": "St Nazaire",
    "country": "FR",
    "elevation_ft": "807",
    "iata": "QBQ",
    "icao": "LFSA",
    "latitude": "47.2747001648",
    "longitude": "6.0841698647",
    "name": "Besancon Thise Airport",
    "region": "Bourgogne-Franche-Comte",
    "timezone": "Europe/Paris"
    },
    {
    "city": "Bale/Mulhouse",
    "country": "FR",
    "elevation_ft": "885",
    "iata": "BSL",
    "icao": "LFSB",
    "latitude": "47.5895996094",
    "longitude": "7.5299100876",
    "name": "EuroAirport Basel-Mulhouse-Freiburg Airport",
    "region": "Grand Est",
    "timezone": "Europe/Paris"
    },
    {
    "city": "Dijon/Longvic",
    "country": "FR",
    "elevation_ft": "726",
    "iata": "DIJ",
    "icao": "LFSD",
    "latitude": "47.268901825",
    "longitude": "5.0900001526",
    "name": "Dijon-Bourgogne Airport",
    "region": "Bourgogne-Franche-Comte",
    "timezone": "Europe/Paris"
    },
    {
    "city": "Metz/Frescaty",
    "country": "FR",
    "elevation_ft": "629",
    "iata": "MZM",
    "icao": "LFSF",
    "latitude": "49.0717010498",
    "longitude": "6.1316699982",
    "name": "Metz-Frescaty (BA 128) Air Base",
    "region": "Grand Est",
    "timezone": "Europe/Paris"
    },
    {
    "city": "Epinal/Mirecourt",
    "country": "FR",
    "elevation_ft": "1084",
    "iata": "EPL",
    "icao": "LFSG",
    "latitude": "48.3250007629",
    "longitude": "6.0699801445",
    "name": "Epinal-Mirecourt Airport",
    "region": "Grand Est",
    "timezone": "Europe/Paris"
    },
    {
    "city": "Montbeliard/Courcelles",
    "country": "FR",
    "elevation_ft": "1041",
    "iata": "XMF",
    "icao": "LFSM",
    "latitude": "47.4869995117",
    "longitude": "6.7905402184",
    "name": "Montbeliard-Courcelles Airport",
    "region": "Bourgogne-Franche-Comte",
    "timezone": "Europe/Paris"
    },
    {
    "city": "Nancy/Essey",
    "country": "FR",
    "elevation_ft": "751",
    "iata": "ENC",
    "icao": "LFSN",
    "latitude": "48.6921005249",
    "longitude": "6.2304601669",
    "name": "Nancy-Essey Airport",
    "region": "Grand Est",
    "timezone": "Europe/Paris"
    },
    {
    "city": "Belfort",
    "country": "FR",
    "elevation_ft": "1208",
    "iata": "BOR",
    "icao": "LFSQ",
    "latitude": "47.6556015015",
    "longitude": "7.0108299255",
    "name": "Fontaine Airport",
    "region": "Bourgogne-Franche-Comte",
    "timezone": "Europe/Paris"
    },
    {
    "city": "Reims/Champagne",
    "country": "FR",
    "elevation_ft": "312",
    "iata": "RHE",
    "icao": "LFSR",
    "latitude": "49.3100013733",
    "longitude": "4.0500001907",
    "name": "Reims-Champagne (BA 112) Airport",
    "region": "Grand Est",
    "timezone": "Europe/Paris"
    },
    {
    "city": "Strasbourg",
    "country": "FR",
    "elevation_ft": "505",
    "iata": "SXB",
    "icao": "LFST",
    "latitude": "48.5382995605",
    "longitude": "7.6282300949",
    "name": "Strasbourg Airport",
    "region": "Grand Est",
    "timezone": "Europe/Paris"
    },
    {
    "city": "Luxeuil",
    "country": "FR",
    "elevation_ft": "1076",
    "iata": "VTL",
    "icao": "LFSZ",
    "latitude": "48.2238998413",
    "longitude": "5.9352798462",
    "name": "Vittel Champ De Course Airport",
    "region": "Grand Est",
    "timezone": "Europe/Paris"
    },
    {
    "city": "Toulon/Hyeres/Le Palyvestre",
    "country": "FR",
    "elevation_ft": "7",
    "iata": "XHE",
    "icao": "LFTH",
    "latitude": "43.0973014832",
    "longitude": "6.1460299492",
    "name": "Toulon-Hyeres Airport",
    "region": "Provence-Alpes-Cote-d'Azur",
    "timezone": "Europe/Paris"
    },
    {
    "city": "Nimes/Garons",
    "country": "FR",
    "elevation_ft": "309",
    "iata": "FNI",
    "icao": "LFTW",
    "latitude": "43.7574005127",
    "longitude": "4.4163498878",
    "name": "Nimes-Arles-Camargue Airport",
    "region": "Occitanie",
    "timezone": "Europe/Paris"
    },
    {
    "city": "La Mole",
    "country": "FR",
    "elevation_ft": "59",
    "iata": "LTT",
    "icao": "LFTZ",
    "latitude": "43.2053985596",
    "longitude": "6.4819998741",
    "name": "La Mole Airport",
    "region": "Provence-Alpes-Cote-d'Azur",
    "timezone": "Europe/Paris"
    }
]